{"type":"FeatureCollection", "features": [
{"type":"Feature","geometry":{"type":"Point","coordinates":[-111.97361202442983,41.087381995590384]},"properties":{"StopId":13840,"StopName":"HILL FIELD RD @ 1891 N","StreetNum":1891,"OnStreet":"N HILL FIELD RD","AtStreet":"ANTELOPE DR","City":"LAYTON","InService":1,"Bench":0,"Shelter":0,"Lighting":0,"Garbage":0,"Bicycle":0,"Transfer":1,"LocationUs":"Bus Stop","UTAStopID":"101001"}},
{"type":"Feature","geometry":{"type":"Point","coordinates":[-111.97362095534866,41.08379298263361]},"properties":{"StopId":13841,"StopName":"HILL FIELD RD @ 1655 N","StreetNum":1655,"OnStreet":"N HILL FIELD RD","AtStreet":"1650 N","City":"LAYTON","InService":1,"Bench":0,"Shelter":1,"Lighting":0,"Garbage":0,"Bicycle":0,"Transfer":0,"LocationUs":"Bus Stop","UTAStopID":"101003"}},
{"type":"Feature","geometry":{"type":"Point","coordinates":[-111.96945904138235,41.06341102923238]},"properties":{"StopId":20998,"StopName":"MAIN ST @ 229 N","StreetNum":229,"OnStreet":"N MAIN ST","AtStreet":"CROSS ST","City":"LAYTON","InService":1,"Bench":0,"Shelter":0,"Lighting":1,"Garbage":0,"Bicycle":0,"Transfer":0,"LocationUs":"Bus Stop","UTAStopID":"101006"}},
{"type":"Feature","geometry":{"type":"Point","coordinates":[-111.97457104222676,41.0789210277753]},"properties":{"StopId":8908,"StopName":"RING RD @ 425 W (LAYTON MALL)","StreetNum":425,"OnStreet":"W RING RD","AtStreet":"RING RD","City":"LAYTON","InService":1,"Bench":1,"Shelter":1,"Lighting":1,"Garbage":1,"Bicycle":0,"Transfer":1,"LocationUs":"Bus Stop","UTAStopID":"101007"}},
{"type":"Feature","geometry":{"type":"Point","coordinates":[-111.95348100016156,41.046455041986434]},"properties":{"StopId":21027,"StopName":"MAIN ST @ 934 S","StreetNum":934,"OnStreet":"S MAIN ST","AtStreet":"CROSS ST","City":"LAYTON","InService":1,"Bench":0,"Shelter":0,"Lighting":1,"Garbage":0,"Bicycle":0,"Transfer":0,"LocationUs":"Bus Stop","UTAStopID":"101008"}},
{"type":"Feature","geometry":{"type":"Point","coordinates":[-111.95025696870631,41.04427102030914]},"properties":{"StopId":21028,"StopName":"MAIN ST @ 573 N","StreetNum":573,"OnStreet":"N MAIN ST","AtStreet":"MARKET ST","City":"KAYSVILLE","InService":1,"Bench":0,"Shelter":0,"Lighting":1,"Garbage":0,"Bicycle":0,"Transfer":0,"LocationUs":"Bus Stop","UTAStopID":"101009"}},
{"type":"Feature","geometry":{"type":"Point","coordinates":[-111.97334695734068,41.083070970130656]},"properties":{"StopId":13468,"StopName":"HILL FIELD RD @ 1596 N","StreetNum":1596,"OnStreet":"N HILL FIELD RD","AtStreet":"1600 N","City":"LAYTON","InService":1,"Bench":0,"Shelter":1,"Lighting":0,"Garbage":0,"Bicycle":0,"Transfer":0,"LocationUs":"Bus Stop","UTAStopID":"101011"}},
{"type":"Feature","geometry":{"type":"Point","coordinates":[-111.97334102384416,41.084944038627526]},"properties":{"StopId":8913,"StopName":"HILL FIELD RD @ 1748 N","StreetNum":1748,"OnStreet":"N HILL FIELD RD","AtStreet":"PAUL AVE","City":"LAYTON","InService":1,"Bench":0,"Shelter":1,"Lighting":0,"Garbage":0,"Bicycle":0,"Transfer":0,"LocationUs":"Bus Stop","UTAStopID":"101012"}},
{"type":"Feature","geometry":{"type":"Point","coordinates":[-111.96167099336427,41.07472299063518]},"properties":{"StopId":13377,"StopName":"GORDON AVE @ 289 E","StreetNum":289,"OnStreet":"E GORDON AVE","AtStreet":"300 E","City":"LAYTON","InService":1,"Bench":0,"Shelter":1,"Lighting":0,"Garbage":0,"Bicycle":0,"Transfer":0,"LocationUs":"Bus Stop","UTAStopID":"101016"}},
{"type":"Feature","geometry":{"type":"Point","coordinates":[-111.96436297380812,41.07474598166418]},"properties":{"StopId":13378,"StopName":"GORDON AVE @ 75 E","StreetNum":75,"OnStreet":"E GORDON AVE","AtStreet":"125 E","City":"LAYTON","InService":1,"Bench":0,"Shelter":1,"Lighting":1,"Garbage":0,"Bicycle":0,"Transfer":0,"LocationUs":"Bus Stop","UTAStopID":"101017"}},
{"type":"Feature","geometry":{"type":"Point","coordinates":[-111.96659394517727,41.07476196851703]},"properties":{"StopId":13379,"StopName":"GORDON AVE @ 40 W","StreetNum":40,"OnStreet":"W GORDON AVE","AtStreet":"HILL BLVD","City":"LAYTON","InService":1,"Bench":0,"Shelter":1,"Lighting":1,"Garbage":0,"Bicycle":0,"Transfer":0,"LocationUs":"Bus Stop","UTAStopID":"101018"}},
{"type":"Feature","geometry":{"type":"Point","coordinates":[-111.97226196520768,41.07480201813827]},"properties":{"StopId":13467,"StopName":"GORDON AVE @ 365 W","StreetNum":365,"OnStreet":"W GORDON AVE","AtStreet":"400 W","City":"LAYTON","InService":1,"Bench":0,"Shelter":1,"Lighting":1,"Garbage":0,"Bicycle":0,"Transfer":0,"LocationUs":"Bus Stop","UTAStopID":"101019"}},
{"type":"Feature","geometry":{"type":"Point","coordinates":[-111.9733690265888,41.07999196285423]},"properties":{"StopId":12934,"StopName":"HILL FIELD RD @ 1398 N","StreetNum":1398,"OnStreet":"N HILL FIELD RD","AtStreet":"1425 N","City":"LAYTON","InService":1,"Bench":0,"Shelter":1,"Lighting":1,"Garbage":0,"Bicycle":0,"Transfer":1,"LocationUs":"Bus Stop","UTAStopID":"101021"}},
{"type":"Feature","geometry":{"type":"Point","coordinates":[-111.97005495870096,41.07463496618451]},"properties":{"StopId":13333,"StopName":"GORDON AVE @ 222 W","StreetNum":222,"OnStreet":"W GORDON AVE","AtStreet":"200 W","City":"LAYTON","InService":1,"Bench":0,"Shelter":1,"Lighting":1,"Garbage":0,"Bicycle":0,"Transfer":0,"LocationUs":"Bus Stop","UTAStopID":"101023"}},
{"type":"Feature","geometry":{"type":"Point","coordinates":[-111.96688799344795,41.0745689833893]},"properties":{"StopId":13334,"StopName":"GORDON AVE @ 54 W","StreetNum":54,"OnStreet":"W GORDON AVE","AtStreet":"HILL BLVD","City":"LAYTON","InService":1,"Bench":0,"Shelter":1,"Lighting":1,"Garbage":0,"Bicycle":0,"Transfer":0,"LocationUs":"Bus Stop","UTAStopID":"101024"}},
{"type":"Feature","geometry":{"type":"Point","coordinates":[-111.96526095630986,41.074557042485935]},"properties":{"StopId":13335,"StopName":"GORDON AVE @ 58 E","StreetNum":58,"OnStreet":"E GORDON AVE","AtStreet":"GARNET DR","City":"LAYTON","InService":1,"Bench":0,"Shelter":1,"Lighting":1,"Garbage":0,"Bicycle":0,"Transfer":0,"LocationUs":"Bus Stop","UTAStopID":"101025"}},
{"type":"Feature","geometry":{"type":"Point","coordinates":[-111.96075095190481,41.07452600521154]},"properties":{"StopId":13336,"StopName":"GORDON AVE @ 336 E","StreetNum":336,"OnStreet":"E GORDON AVE","AtStreet":"AMETHYST ST","City":"LAYTON","InService":1,"Bench":0,"Shelter":1,"Lighting":1,"Garbage":0,"Bicycle":0,"Transfer":0,"LocationUs":"Bus Stop","UTAStopID":"101026"}},
{"type":"Feature","geometry":{"type":"Point","coordinates":[-111.95448496021399,41.07447196791636]},"properties":{"StopId":13338,"StopName":"GORDON AVE @ 570 E","StreetNum":570,"OnStreet":"E GORDON AVE","AtStreet":"VALERIA DR","City":"LAYTON","InService":1,"Bench":0,"Shelter":1,"Lighting":1,"Garbage":0,"Bicycle":0,"Transfer":0,"LocationUs":"Bus Stop","UTAStopID":"101027"}},
{"type":"Feature","geometry":{"type":"Point","coordinates":[-111.95030702470663,41.073115042870754]},"properties":{"StopId":13339,"StopName":"FAIRFIELD RD @ 915 N","StreetNum":915,"OnStreet":"N FAIRFIELD RD","AtStreet":"900 N","City":"LAYTON","InService":1,"Bench":0,"Shelter":1,"Lighting":1,"Garbage":0,"Bicycle":0,"Transfer":0,"LocationUs":"Bus Stop","UTAStopID":"101029"}},
{"type":"Feature","geometry":{"type":"Point","coordinates":[-111.95032204043582,41.070587016762744]},"properties":{"StopId":13340,"StopName":"FAIRFIELD RD @ 735 N","StreetNum":735,"OnStreet":"N FAIRFIELD RD","AtStreet":"900 N","City":"LAYTON","InService":1,"Bench":0,"Shelter":1,"Lighting":1,"Garbage":0,"Bicycle":0,"Transfer":0,"LocationUs":"Bus Stop","UTAStopID":"101030"}},
{"type":"Feature","geometry":{"type":"Point","coordinates":[-111.95029601115652,41.067555963243265]},"properties":{"StopId":13341,"StopName":"FAIRFIELD RD @ 525 N","StreetNum":525,"OnStreet":"N FAIRFIELD RD","AtStreet":"WASATCH DR","City":"LAYTON","InService":1,"Bench":0,"Shelter":1,"Lighting":1,"Garbage":0,"Bicycle":0,"Transfer":0,"LocationUs":"Bus Stop","UTAStopID":"101031"}},
{"type":"Feature","geometry":{"type":"Point","coordinates":[-111.94885105548668,41.0655680130252]},"properties":{"StopId":13342,"StopName":"FAIRFIELD RD @ 325 N","StreetNum":325,"OnStreet":"N FAIRFIELD RD","AtStreet":"300 N","City":"LAYTON","InService":1,"Bench":0,"Shelter":1,"Lighting":1,"Garbage":1,"Bicycle":0,"Transfer":0,"LocationUs":"Bus Stop","UTAStopID":"101032"}},
{"type":"Feature","geometry":{"type":"Point","coordinates":[-111.946749040847,41.063551033732374]},"properties":{"StopId":13371,"StopName":"FAIRFIELD RD @ 240 N","StreetNum":240,"OnStreet":"N FAIRFIELD RD","AtStreet":"300 N","City":"LAYTON","InService":1,"Bench":0,"Shelter":1,"Lighting":1,"Garbage":1,"Bicycle":0,"Transfer":0,"LocationUs":"Bus Stop","UTAStopID":"101033"}},
{"type":"Feature","geometry":{"type":"Point","coordinates":[-111.94489095737268,41.060598969253945]},"properties":{"StopId":13344,"StopName":"FAIRFIELD RD @ 70 S","StreetNum":70,"OnStreet":"S FAIRFIELD RD","AtStreet":"GENTILE ST","City":"LAYTON","InService":1,"Bench":1,"Shelter":1,"Lighting":1,"Garbage":1,"Bicycle":0,"Transfer":0,"LocationUs":"Bus Stop","UTAStopID":"101034"}},
{"type":"Feature","geometry":{"type":"Point","coordinates":[-111.94373603355304,41.05842300878798]},"properties":{"StopId":13345,"StopName":"FAIRFIELD RD @ 150 S","StreetNum":150,"OnStreet":"S FAIRFIELD RD","AtStreet":"ROSEWOOD DR","City":"LAYTON","InService":1,"Bench":1,"Shelter":1,"Lighting":1,"Garbage":1,"Bicycle":0,"Transfer":0,"LocationUs":"Bus Stop","UTAStopID":"101035"}},
{"type":"Feature","geometry":{"type":"Point","coordinates":[-111.94280100435519,41.0409279560006]},"properties":{"StopId":12268,"StopName":"MAIN ST @ 450 N","StreetNum":450,"OnStreet":"N MAIN ST","AtStreet":"300 W","City":"KAYSVILLE","InService":1,"Bench":1,"Shelter":0,"Lighting":1,"Garbage":0,"Bicycle":0,"Transfer":0,"LocationUs":"Bus Stop","UTAStopID":"101036"}},
{"type":"Feature","geometry":{"type":"Point","coordinates":[-111.94477196327611,41.06080802912419]},"properties":{"StopId":13370,"StopName":"FAIRFIELD RD @ 55 S","StreetNum":55,"OnStreet":"S FAIRFIELD RD","AtStreet":"GENTILE ST","City":"LAYTON","InService":1,"Bench":1,"Shelter":1,"Lighting":1,"Garbage":1,"Bicycle":0,"Transfer":0,"LocationUs":"Bus Stop","UTAStopID":"101037"}},
{"type":"Feature","geometry":{"type":"Point","coordinates":[-111.94682397137895,41.063365034072646]},"properties":{"StopId":13343,"StopName":"FAIRFIELD RD @ 221 N","StreetNum":221,"OnStreet":"N FAIRFIELD RD","AtStreet":"300 N","City":"LAYTON","InService":1,"Bench":1,"Shelter":1,"Lighting":1,"Garbage":1,"Bicycle":0,"Transfer":0,"LocationUs":"Bus Stop","UTAStopID":"101038"}},
{"type":"Feature","geometry":{"type":"Point","coordinates":[-111.94867296192909,41.065648028850596]},"properties":{"StopId":13372,"StopName":"FAIRFIELD RD @ 340 N","StreetNum":340,"OnStreet":"N FAIRFIELD RD","AtStreet":"350 N","City":"LAYTON","InService":1,"Bench":1,"Shelter":1,"Lighting":1,"Garbage":1,"Bicycle":0,"Transfer":0,"LocationUs":"Bus Stop","UTAStopID":"101039"}},
{"type":"Feature","geometry":{"type":"Point","coordinates":[-111.95012304066158,41.07086096835254]},"properties":{"StopId":13374,"StopName":"FAIRFIELD RD @ 748 N","StreetNum":748,"OnStreet":"N FAIRFIELD RD","AtStreet":"ASPEN WAY","City":"LAYTON","InService":1,"Bench":1,"Shelter":1,"Lighting":1,"Garbage":1,"Bicycle":0,"Transfer":0,"LocationUs":"Bus Stop","UTAStopID":"101041"}},
{"type":"Feature","geometry":{"type":"Point","coordinates":[-111.95011899019903,41.073159020975936]},"properties":{"StopId":8860,"StopName":"FAIRFIELD RD @ 920 N","StreetNum":920,"OnStreet":"N FAIRFIELD RD","AtStreet":"GORDON AVE","City":"LAYTON","InService":1,"Bench":1,"Shelter":1,"Lighting":1,"Garbage":1,"Bicycle":0,"Transfer":0,"LocationUs":"Bus Stop","UTAStopID":"101042"}},
{"type":"Feature","geometry":{"type":"Point","coordinates":[-111.95718196114063,41.0746859636149]},"properties":{"StopId":13376,"StopName":"GORDON AVE @ 409 E","StreetNum":409,"OnStreet":"E GORDON AVE","AtStreet":"FORT LN","City":"LAYTON","InService":1,"Bench":1,"Shelter":1,"Lighting":1,"Garbage":1,"Bicycle":0,"Transfer":0,"LocationUs":"Bus Stop","UTAStopID":"101043"}},
{"type":"Feature","geometry":{"type":"Point","coordinates":[-111.9577509947096,41.07449197817141]},"properties":{"StopId":13337,"StopName":"GORDON AVE @ 402 E","StreetNum":402,"OnStreet":"E GORDON AVE","AtStreet":"FORT LN","City":"LAYTON","InService":1,"Bench":1,"Shelter":1,"Lighting":1,"Garbage":1,"Bicycle":0,"Transfer":0,"LocationUs":"Bus Stop","UTAStopID":"101044"}},
{"type":"Feature","geometry":{"type":"Point","coordinates":[-112.00024295081697,41.08809403400306]},"properties":{"StopId":12533,"StopName":"MAIN ST @ 1969 N","StreetNum":1969,"OnStreet":"N MAIN ST","AtStreet":"ANTELOPE AVE","City":"LAYTON","InService":1,"Bench":1,"Shelter":0,"Lighting":1,"Garbage":1,"Bicycle":0,"Transfer":1,"LocationUs":"Bus Stop","UTAStopID":"101050"}},
{"type":"Feature","geometry":{"type":"Point","coordinates":[-111.99771099007191,41.085605031365134]},"properties":{"StopId":12534,"StopName":"MAIN ST @ 1711 N","StreetNum":1711,"OnStreet":"N MAIN ST","AtStreet":"CAMELOT WAY","City":"LAYTON","InService":1,"Bench":1,"Shelter":0,"Lighting":1,"Garbage":1,"Bicycle":0,"Transfer":0,"LocationUs":"Bus Stop","UTAStopID":"101051"}},
{"type":"Feature","geometry":{"type":"Point","coordinates":[-111.99481704485044,41.08344599495183]},"properties":{"StopId":12535,"StopName":"MAIN ST @ 1591 N","StreetNum":1591,"OnStreet":"N MAIN ST","AtStreet":"1600 N","City":"LAYTON","InService":1,"Bench":1,"Shelter":0,"Lighting":1,"Garbage":1,"Bicycle":0,"Transfer":0,"LocationUs":"Bus Stop","UTAStopID":"101052"}},
{"type":"Feature","geometry":{"type":"Point","coordinates":[-111.99076702940008,41.081004974555945]},"properties":{"StopId":12537,"StopName":"MAIN ST @ 1465 N","StreetNum":1465,"OnStreet":"N MAIN ST","AtStreet":"1600 N","City":"LAYTON","InService":1,"Bench":1,"Shelter":0,"Lighting":1,"Garbage":1,"Bicycle":0,"Transfer":0,"LocationUs":"Bus Stop","UTAStopID":"101054"}},
{"type":"Feature","geometry":{"type":"Point","coordinates":[-111.98352298317374,41.07660396825943]},"properties":{"StopId":12539,"StopName":"MAIN ST @ 1125 N (LAYTON)","StreetNum":1125,"OnStreet":"N MAIN ST","AtStreet":"1600 N","City":"LAYTON","InService":1,"Bench":1,"Shelter":0,"Lighting":1,"Garbage":1,"Bicycle":0,"Transfer":0,"LocationUs":"Bus Stop","UTAStopID":"101057"}},
{"type":"Feature","geometry":{"type":"Point","coordinates":[-111.97406502137794,41.06799695996257]},"properties":{"StopId":12543,"StopName":"MAIN ST @ 515 N","StreetNum":515,"OnStreet":"N MAIN ST","AtStreet":"HILL FIELD RD","City":"LAYTON","InService":1,"Bench":1,"Shelter":0,"Lighting":1,"Garbage":1,"Bicycle":0,"Transfer":0,"LocationUs":"Bus Stop","UTAStopID":"101060"}},
{"type":"Feature","geometry":{"type":"Point","coordinates":[-111.97045105928137,41.06455398607721]},"properties":{"StopId":12544,"StopName":"MAIN ST @ 301 N","StreetNum":301,"OnStreet":"N MAIN ST","AtStreet":"HILL FIELD RD","City":"LAYTON","InService":1,"Bench":1,"Shelter":0,"Lighting":1,"Garbage":1,"Bicycle":0,"Transfer":0,"LocationUs":"Bus Stop","UTAStopID":"101061"}},
{"type":"Feature","geometry":{"type":"Point","coordinates":[-111.96858605212604,41.06257495522422]},"properties":{"StopId":12545,"StopName":"MAIN ST @ 145 N","StreetNum":145,"OnStreet":"N MAIN ST","AtStreet":"CHURCH DR","City":"LAYTON","InService":1,"Bench":1,"Shelter":0,"Lighting":1,"Garbage":1,"Bicycle":0,"Transfer":0,"LocationUs":"Bus Stop","UTAStopID":"101062"}},
{"type":"Feature","geometry":{"type":"Point","coordinates":[-111.96412599782916,41.060105982398966]},"properties":{"StopId":12546,"StopName":"GENTILE ST @ 70 E","StreetNum":70,"OnStreet":"E GENTILE ST","AtStreet":"MAIN ST","City":"LAYTON","InService":1,"Bench":1,"Shelter":0,"Lighting":1,"Garbage":1,"Bicycle":0,"Transfer":1,"LocationUs":"Bus Stop","UTAStopID":"101063"}},
{"type":"Feature","geometry":{"type":"Point","coordinates":[-111.95910895282029,41.060052005352965]},"properties":{"StopId":12547,"StopName":"GENTILE ST @ 350 E (LAYTON)","StreetNum":350,"OnStreet":"E GENTILE ST","AtStreet":"FORT LN","City":"LAYTON","InService":1,"Bench":1,"Shelter":0,"Lighting":1,"Garbage":1,"Bicycle":0,"Transfer":0,"LocationUs":"Bus Stop","UTAStopID":"101064"}},
{"type":"Feature","geometry":{"type":"Point","coordinates":[-111.95775504096734,41.05912103273397]},"properties":{"StopId":3848,"StopName":"FORT LN @ 70 S (LAYTON)","StreetNum":70,"OnStreet":"S FORT LN","AtStreet":"GENTILE ST","City":"LAYTON","InService":1,"Bench":1,"Shelter":0,"Lighting":1,"Garbage":1,"Bicycle":0,"Transfer":0,"LocationUs":"Bus Stop","UTAStopID":"101065"}},
{"type":"Feature","geometry":{"type":"Point","coordinates":[-111.95778800465679,41.05730799435232]},"properties":{"StopId":12548,"StopName":"FORT LN @ 180 S","StreetNum":180,"OnStreet":"S FORT LN","AtStreet":"100 S","City":"LAYTON","InService":1,"Bench":1,"Shelter":0,"Lighting":1,"Garbage":1,"Bicycle":0,"Transfer":0,"LocationUs":"Bus Stop","UTAStopID":"101066"}},
{"type":"Feature","geometry":{"type":"Point","coordinates":[-111.95731094248119,41.04958599429991]},"properties":{"StopId":12551,"StopName":"MAIN ST @ 736 S","StreetNum":736,"OnStreet":"S MAIN ST","AtStreet":"ROSEWOOD DR","City":"LAYTON","InService":1,"Bench":1,"Shelter":0,"Lighting":1,"Garbage":1,"Bicycle":0,"Transfer":0,"LocationUs":"Bus Stop","UTAStopID":"101069"}},
{"type":"Feature","geometry":{"type":"Point","coordinates":[-111.95483701778508,41.04744703433191]},"properties":{"StopId":12552,"StopName":"MAIN ST @ 836 S","StreetNum":836,"OnStreet":"S MAIN ST","AtStreet":"ROSEWOOD DR","City":"LAYTON","InService":1,"Bench":1,"Shelter":0,"Lighting":1,"Garbage":1,"Bicycle":0,"Transfer":0,"LocationUs":"Bus Stop","UTAStopID":"101071"}},
{"type":"Feature","geometry":{"type":"Point","coordinates":[-111.94368300112109,41.04089695584739]},"properties":{"StopId":12558,"StopName":"MAIN ST @ 375 N","StreetNum":375,"OnStreet":"N MAIN ST","AtStreet":"300 W","City":"KAYSVILLE","InService":1,"Bench":1,"Shelter":0,"Lighting":1,"Garbage":1,"Bicycle":0,"Transfer":0,"LocationUs":"Bus Stop","UTAStopID":"101076"}},
{"type":"Feature","geometry":{"type":"Point","coordinates":[-111.95104497051183,41.045047044435705]},"properties":{"StopId":12460,"StopName":"MAIN ST @ 598 N (KAYSVILLE)","StreetNum":598,"OnStreet":"N MAIN ST","AtStreet":"MUTTON HOLLOW RD","City":"KAYSVILLE","InService":1,"Bench":1,"Shelter":0,"Lighting":1,"Garbage":1,"Bicycle":0,"Transfer":0,"LocationUs":"Bus Stop","UTAStopID":"101080"}},
{"type":"Feature","geometry":{"type":"Point","coordinates":[-111.95612401987263,41.04884701436803]},"properties":{"StopId":12462,"StopName":"MAIN ST @ 780 N (LAYTON)","StreetNum":780,"OnStreet":"N MAIN ST","AtStreet":"MUTTON HOLLOW RD","City":"Layton","InService":1,"Bench":1,"Shelter":0,"Lighting":1,"Garbage":1,"Bicycle":0,"Transfer":0,"LocationUs":"Bus Stop","UTAStopID":"101082"}},
{"type":"Feature","geometry":{"type":"Point","coordinates":[-111.95758600633496,41.05747704128983]},"properties":{"StopId":12466,"StopName":"FORT LN @ 970 S","StreetNum":970,"OnStreet":"S FORT LN","AtStreet":"ELM ST","City":"LAYTON","InService":1,"Bench":1,"Shelter":0,"Lighting":1,"Garbage":1,"Bicycle":0,"Transfer":0,"LocationUs":"Bus Stop","UTAStopID":"101086"}},
{"type":"Feature","geometry":{"type":"Point","coordinates":[-111.9585489572227,41.06016295905584]},"properties":{"StopId":3726,"StopName":"GENTILE ST @ 399 E (LAYTON)","StreetNum":399,"OnStreet":"E GENTILE ST","AtStreet":"ELM ST","City":"LAYTON","InService":1,"Bench":1,"Shelter":0,"Lighting":1,"Garbage":1,"Bicycle":0,"Transfer":0,"LocationUs":"Bus Stop","UTAStopID":"101088"}},
{"type":"Feature","geometry":{"type":"Point","coordinates":[-111.96153103846227,41.060190990889325]},"properties":{"StopId":12467,"StopName":"GENTILE ST @ 223 E","StreetNum":223,"OnStreet":"E GENTILE ST","AtStreet":"WASATCH AVE","City":"LAYTON","InService":1,"Bench":1,"Shelter":0,"Lighting":1,"Garbage":1,"Bicycle":0,"Transfer":0,"LocationUs":"Bus Stop","UTAStopID":"101089"}},
{"type":"Feature","geometry":{"type":"Point","coordinates":[-111.96438098733772,41.06023302290092]},"properties":{"StopId":12468,"StopName":"GENTILE ST @ 51 E","StreetNum":51,"OnStreet":"E GENTILE ST","AtStreet":"WASATCH AVE","City":"LAYTON","InService":1,"Bench":1,"Shelter":0,"Lighting":1,"Garbage":1,"Bicycle":0,"Transfer":1,"LocationUs":"Bus Stop","UTAStopID":"101091"}},
{"type":"Feature","geometry":{"type":"Point","coordinates":[-111.96836705610981,41.062695971163734]},"properties":{"StopId":12469,"StopName":"MAIN ST @ 172 N","StreetNum":172,"OnStreet":"N MAIN ST","AtStreet":"CHURCH DR","City":"LAYTON","InService":1,"Bench":1,"Shelter":0,"Lighting":1,"Garbage":1,"Bicycle":0,"Transfer":0,"LocationUs":"Bus Stop","UTAStopID":"101092"}},
{"type":"Feature","geometry":{"type":"Point","coordinates":[-111.97333496706494,41.06770901949499]},"properties":{"StopId":12472,"StopName":"MAIN ST @ 570 N","StreetNum":570,"OnStreet":"N MAIN ST","AtStreet":"400 W","City":"LAYTON","InService":1,"Bench":1,"Shelter":0,"Lighting":1,"Garbage":1,"Bicycle":0,"Transfer":0,"LocationUs":"Bus Stop","UTAStopID":"101095"}},
{"type":"Feature","geometry":{"type":"Point","coordinates":[-111.97670096561448,41.07088700679254]},"properties":{"StopId":12473,"StopName":"MAIN ST @ 688 N (LAYTON)","StreetNum":688,"OnStreet":"N MAIN ST","AtStreet":"400 W","City":"LAYTON","InService":1,"Bench":1,"Shelter":0,"Lighting":1,"Garbage":1,"Bicycle":0,"Transfer":0,"LocationUs":"Bus Stop","UTAStopID":"101097"}},
{"type":"Feature","geometry":{"type":"Point","coordinates":[-111.98093099641586,41.074880956349574]},"properties":{"StopId":12475,"StopName":"MAIN ST @ 1040 N","StreetNum":1040,"OnStreet":"N MAIN ST","AtStreet":"GORDON AVE","City":"LAYTON","InService":1,"Bench":1,"Shelter":0,"Lighting":1,"Garbage":1,"Bicycle":0,"Transfer":0,"LocationUs":"Bus Stop","UTAStopID":"101098"}},
{"type":"Feature","geometry":{"type":"Point","coordinates":[-111.98341801114178,41.076805020556044]},"properties":{"StopId":12476,"StopName":"MAIN ST @ 1130 N (LAYTON)","StreetNum":1130,"OnStreet":"N MAIN ST","AtStreet":"GORDON AVE","City":"LAYTON","InService":1,"Bench":1,"Shelter":0,"Lighting":1,"Garbage":1,"Bicycle":0,"Transfer":0,"LocationUs":"Bus Stop","UTAStopID":"101099"}},
{"type":"Feature","geometry":{"type":"Point","coordinates":[-111.98885501745013,41.08010799620644]},"properties":{"StopId":12477,"StopName":"MAIN ST @ 1380 N","StreetNum":1380,"OnStreet":"N MAIN ST","AtStreet":"GORDON AVE","City":"LAYTON","InService":1,"Bench":1,"Shelter":0,"Lighting":1,"Garbage":1,"Bicycle":0,"Transfer":0,"LocationUs":"Bus Stop","UTAStopID":"101100"}},
{"type":"Feature","geometry":{"type":"Point","coordinates":[-111.99211599123261,41.08208395638216]},"properties":{"StopId":12478,"StopName":"MAIN ST @ 1538 N","StreetNum":1538,"OnStreet":"N MAIN ST","AtStreet":"GORDON AVE","City":"LAYTON","InService":1,"Bench":1,"Shelter":0,"Lighting":1,"Garbage":1,"Bicycle":0,"Transfer":0,"LocationUs":"Bus Stop","UTAStopID":"101101"}},
{"type":"Feature","geometry":{"type":"Point","coordinates":[-111.99469397130264,41.08365297858678]},"properties":{"StopId":12479,"StopName":"MAIN ST @ 1580 N","StreetNum":1580,"OnStreet":"N MAIN ST","AtStreet":"GORDON AVE","City":"LAYTON","InService":1,"Bench":1,"Shelter":0,"Lighting":1,"Garbage":1,"Bicycle":0,"Transfer":0,"LocationUs":"Bus Stop","UTAStopID":"101102"}},
{"type":"Feature","geometry":{"type":"Point","coordinates":[-112.00015597567432,41.0884040306316]},"properties":{"StopId":12481,"StopName":"MAIN ST @ 1986 N (LAYTON)","StreetNum":1986,"OnStreet":"N MAIN ST","AtStreet":"ANTELOPE DR","City":"LAYTON","InService":1,"Bench":1,"Shelter":0,"Lighting":1,"Garbage":1,"Bicycle":0,"Transfer":1,"LocationUs":"Bus Stop","UTAStopID":"101104"}},
{"type":"Feature","geometry":{"type":"Point","coordinates":[-111.96927696337517,41.07483104055557]},"properties":{"StopId":13466,"StopName":"GORDON AVE @ 180 W","StreetNum":180,"OnStreet":"W GORDON AVE","AtStreet":"LA VERDE ST","City":"LAYTON","InService":1,"Bench":1,"Shelter":1,"Lighting":1,"Garbage":1,"Bicycle":0,"Transfer":0,"LocationUs":"Bus Stop","UTAStopID":"101110"}},
{"type":"Feature","geometry":{"type":"Point","coordinates":[-111.97363197885407,41.080151974042785]},"properties":{"StopId":12933,"StopName":"HILL FIELD RD @ 1415 N","StreetNum":1415,"OnStreet":"N HILL FIELD RD","AtStreet":"1425 N","City":"LAYTON","InService":1,"Bench":1,"Shelter":1,"Lighting":1,"Garbage":1,"Bicycle":0,"Transfer":1,"LocationUs":"Bus Stop","UTAStopID":"101112"}},
{"type":"Feature","geometry":{"type":"Point","coordinates":[-111.98643503674772,41.0783869665289]},"properties":{"StopId":12538,"StopName":"MAIN ST @ 1255 N (LAYTON)","StreetNum":1255,"OnStreet":"N MAIN ST","AtStreet":"A ST","City":"LAYTON","InService":1,"Bench":1,"Shelter":0,"Lighting":1,"Garbage":1,"Bicycle":0,"Transfer":0,"LocationUs":"Bus Stop","UTAStopID":"101119"}},
{"type":"Feature","geometry":{"type":"Point","coordinates":[-111.95782601856322,41.05374304186548]},"properties":{"StopId":12550,"StopName":"FORT LN @ 410 S","StreetNum":410,"OnStreet":"S FORT LN","AtStreet":"550 S","City":"LAYTON","InService":1,"Bench":1,"Shelter":0,"Lighting":1,"Garbage":1,"Bicycle":0,"Transfer":0,"LocationUs":"Bus Stop","UTAStopID":"101121"}},
{"type":"Feature","geometry":{"type":"Point","coordinates":[-111.94114202455437,41.04010197010858]},"properties":{"StopId":12559,"StopName":"MAIN ST @ 315 N","StreetNum":315,"OnStreet":"N MAIN ST","AtStreet":"320 N","City":"KAYSVILLE","InService":1,"Bench":1,"Shelter":0,"Lighting":1,"Garbage":1,"Bicycle":0,"Transfer":0,"LocationUs":"Bus Stop","UTAStopID":"101122"}},
{"type":"Feature","geometry":{"type":"Point","coordinates":[-111.9425820581155,41.05620802342528]},"properties":{"StopId":13346,"StopName":"FAIRFIELD RD @ 330 S","StreetNum":330,"OnStreet":"S FAIRFIELD RD","AtStreet":"320 S","City":"LAYTON","InService":1,"Bench":1,"Shelter":1,"Lighting":1,"Garbage":1,"Bicycle":0,"Transfer":0,"LocationUs":"Bus Stop","UTAStopID":"101123"}},
{"type":"Feature","geometry":{"type":"Point","coordinates":[-111.94122394589476,41.053967038494356]},"properties":{"StopId":13347,"StopName":"FAIRFIELD RD @ 450 S","StreetNum":450,"OnStreet":"S FAIRFIELD RD","AtStreet":"PHEASANT VIEW DR","City":"LAYTON","InService":1,"Bench":1,"Shelter":1,"Lighting":1,"Garbage":1,"Bicycle":0,"Transfer":0,"LocationUs":"Bus Stop","UTAStopID":"101124"}},
{"type":"Feature","geometry":{"type":"Point","coordinates":[-111.94135696091567,41.05444103308057]},"properties":{"StopId":13367,"StopName":"FAIRFIELD RD @ 1216 N","StreetNum":1216,"OnStreet":"N FAIRFIELD RD","AtStreet":"ALFRED AVE","City":"LAYTON","InService":1,"Bench":1,"Shelter":1,"Lighting":1,"Garbage":1,"Bicycle":0,"Transfer":0,"LocationUs":"Bus Stop","UTAStopID":"101125"}},
{"type":"Feature","geometry":{"type":"Point","coordinates":[-111.94254900665005,41.05652699613706]},"properties":{"StopId":13368,"StopName":"FAIRFIELD RD @ 319 S","StreetNum":319,"OnStreet":"S FAIRFIELD RD","AtStreet":"320 S","City":"LAYTON","InService":1,"Bench":1,"Shelter":1,"Lighting":1,"Garbage":1,"Bicycle":0,"Transfer":0,"LocationUs":"Bus Stop","UTAStopID":"101126"}},
{"type":"Feature","geometry":{"type":"Point","coordinates":[-111.94381894194764,41.05900298394196]},"properties":{"StopId":13369,"StopName":"FAIRFIELD RD @ 125 S","StreetNum":125,"OnStreet":"S FAIRFIELD RD","AtStreet":"ROSEWOOD LN","City":"LAYTON","InService":1,"Bench":1,"Shelter":1,"Lighting":1,"Garbage":1,"Bicycle":0,"Transfer":0,"LocationUs":"Bus Stop","UTAStopID":"101127"}},
{"type":"Feature","geometry":{"type":"Point","coordinates":[-111.9673980257561,40.680688961243064]},"properties":{"StopId":21359,"StopName":"3200 W @ 4165 S","StreetNum":4165,"OnStreet":"S 3200 W","AtStreet":"","City":"WEST VALLEY","InService":1,"Bench":0,"Shelter":0,"Lighting":0,"Garbage":0,"Bicycle":0,"Transfer":0,"LocationUs":"Bus Stop","UTAStopID":"101131"}},
{"type":"Feature","geometry":{"type":"Point","coordinates":[-111.93880300131129,40.713337993465984]},"properties":{"StopId":21350,"StopName":"REDWOOD RD @ 2641 S","StreetNum":2641,"OnStreet":"S REDWOOD RD","AtStreet":"","City":"WEST VALLEY","InService":1,"Bench":0,"Shelter":0,"Lighting":0,"Garbage":0,"Bicycle":0,"Transfer":0,"LocationUs":"Bus Stop","UTAStopID":"101136"}},
{"type":"Feature","geometry":{"type":"Point","coordinates":[-111.94032101442684,40.7332270124343]},"properties":{"StopId":21364,"StopName":"1700 S @ 1750 W","StreetNum":1750,"OnStreet":"W 1700 S","AtStreet":"REDWOOD RD","City":"SALT LAKE CITY","InService":1,"Bench":1,"Shelter":0,"Lighting":1,"Garbage":1,"Bicycle":0,"Transfer":1,"LocationUs":"Bus Stop","UTAStopID":"101140"}},
{"type":"Feature","geometry":{"type":"Point","coordinates":[-111.93880698554496,40.70284097100208]},"properties":{"StopId":21363,"StopName":"REDWOOD RD @ 3171 S","StreetNum":3171,"OnStreet":"S REDWOOD RD","AtStreet":"","City":"WEST VALLEY","InService":1,"Bench":0,"Shelter":0,"Lighting":0,"Garbage":0,"Bicycle":0,"Transfer":0,"LocationUs":"Bus Stop","UTAStopID":"101141"}},
{"type":"Feature","geometry":{"type":"Point","coordinates":[-112.07621802106515,40.696603025577296]},"properties":{"StopId":21369,"StopName":"3500 S @ 7742 W","StreetNum":7742,"OnStreet":"W 3500 S","AtStreet":"MONTCLAIR ST","City":"MAGNA","InService":1,"Bench":0,"Shelter":0,"Lighting":0,"Garbage":0,"Bicycle":0,"Transfer":0,"LocationUs":"Bus Stop","UTAStopID":"101144"}},
{"type":"Feature","geometry":{"type":"Point","coordinates":[-111.88854596742581,40.73346398336363]},"properties":{"StopId":21395,"StopName":"1700 S @ 90 E","StreetNum":90,"OnStreet":"E 1700 S","AtStreet":"","City":"SALT LAKE CITY","InService":1,"Bench":0,"Shelter":0,"Lighting":1,"Garbage":0,"Bicycle":0,"Transfer":1,"LocationUs":"Bus Stop","UTAStopID":"101145"}},
{"type":"Feature","geometry":{"type":"Point","coordinates":[-111.88209405469017,40.73347698857004]},"properties":{"StopId":21396,"StopName":"1700 S @ 312 E","StreetNum":312,"OnStreet":"E 1700 S","AtStreet":"S 300 E","City":"SALT LAKE CITY","InService":1,"Bench":0,"Shelter":0,"Lighting":1,"Garbage":0,"Bicycle":0,"Transfer":1,"LocationUs":"Bus Stop","UTAStopID":"101146"}},
{"type":"Feature","geometry":{"type":"Point","coordinates":[-111.87497101937134,40.73345400427013]},"properties":{"StopId":21397,"StopName":"1700 S @ 564 E","StreetNum":564,"OnStreet":"E 1700 S","AtStreet":"PARK ST","City":"SALT LAKE CITY","InService":1,"Bench":0,"Shelter":0,"Lighting":1,"Garbage":0,"Bicycle":0,"Transfer":1,"LocationUs":"Bus Stop","UTAStopID":"101147"}},
{"type":"Feature","geometry":{"type":"Point","coordinates":[-111.87031597069344,40.73343902227971]},"properties":{"StopId":21401,"StopName":"1700 S @ 722 E","StreetNum":722,"OnStreet":"E 1700 S","AtStreet":"","City":"SALT LAKE CITY","InService":1,"Bench":0,"Shelter":0,"Lighting":1,"Garbage":0,"Bicycle":0,"Transfer":1,"LocationUs":"Bus Stop","UTAStopID":"101148"}},
{"type":"Feature","geometry":{"type":"Point","coordinates":[-111.86481800192057,40.73344503550078]},"properties":{"StopId":21402,"StopName":"1700 S @ 920 E","StreetNum":920,"OnStreet":"E 1700 S","AtStreet":"","City":"SALT LAKE CITY","InService":1,"Bench":0,"Shelter":0,"Lighting":1,"Garbage":0,"Bicycle":0,"Transfer":1,"LocationUs":"Bus Stop","UTAStopID":"101149"}},
{"type":"Feature","geometry":{"type":"Point","coordinates":[-111.8591109521112,40.73346504523802]},"properties":{"StopId":21403,"StopName":"1700 S @ 1118 E","StreetNum":1118,"OnStreet":"E 1700 S","AtStreet":"","City":"SALT LAKE CITY","InService":1,"Bench":0,"Shelter":0,"Lighting":1,"Garbage":0,"Bicycle":0,"Transfer":1,"LocationUs":"Bus Stop","UTAStopID":"101150"}},
{"type":"Feature","geometry":{"type":"Point","coordinates":[-111.8546529988843,40.733462017442164]},"properties":{"StopId":21404,"StopName":"1700 S @ 1264 E","StreetNum":1264,"OnStreet":"E 1700 S","AtStreet":"","City":"SALT LAKE CITY","InService":1,"Bench":0,"Shelter":1,"Lighting":1,"Garbage":1,"Bicycle":0,"Transfer":1,"LocationUs":"Bus Stop","UTAStopID":"101151"}},
{"type":"Feature","geometry":{"type":"Point","coordinates":[-111.84828003958124,40.733463989357645]},"properties":{"StopId":21405,"StopName":"1700 S @ 1488 E","StreetNum":1488,"OnStreet":"E 1700 S","AtStreet":"","City":"SALT LAKE CITY","InService":1,"Bench":0,"Shelter":1,"Lighting":1,"Garbage":1,"Bicycle":0,"Transfer":0,"LocationUs":"Bus Stop","UTAStopID":"101152"}},
{"type":"Feature","geometry":{"type":"Point","coordinates":[-111.85350100800922,40.7335499969671]},"properties":{"StopId":21406,"StopName":"1700 S @ 1315 E","StreetNum":1315,"OnStreet":"E 1700 S.","AtStreet":"","City":"SALT LAKE CITY","InService":1,"Bench":0,"Shelter":1,"Lighting":1,"Garbage":1,"Bicycle":0,"Transfer":1,"LocationUs":"Bus Stop","UTAStopID":"101153"}},
{"type":"Feature","geometry":{"type":"Point","coordinates":[-111.85891602907894,40.73357603937948]},"properties":{"StopId":21407,"StopName":"1700 S @ 1119 E","StreetNum":1119,"OnStreet":"E 1700 S.","AtStreet":"","City":"SALT LAKE CITY","InService":1,"Bench":0,"Shelter":1,"Lighting":1,"Garbage":1,"Bicycle":0,"Transfer":1,"LocationUs":"Bus Stop","UTAStopID":"101154"}},
{"type":"Feature","geometry":{"type":"Point","coordinates":[-111.86573496135443,40.733581036037634]},"properties":{"StopId":21408,"StopName":"1700 S @ 881 E","StreetNum":881,"OnStreet":"E 1700 S","AtStreet":"900 E","City":"SALT LAKE CITY","InService":1,"Bench":0,"Shelter":1,"Lighting":1,"Garbage":1,"Bicycle":0,"Transfer":1,"LocationUs":"Bus Stop","UTAStopID":"101155"}},
{"type":"Feature","geometry":{"type":"Point","coordinates":[-111.87196794758466,40.733560960515234]},"properties":{"StopId":21409,"StopName":"1700 S @ 691 E","StreetNum":691,"OnStreet":"E 1700 S","AtStreet":"900 E","City":"SALT LAKE CITY","InService":1,"Bench":0,"Shelter":1,"Lighting":1,"Garbage":1,"Bicycle":0,"Transfer":1,"LocationUs":"Bus Stop","UTAStopID":"101156"}},
{"type":"Feature","geometry":{"type":"Point","coordinates":[-111.8773029964365,40.73355701620263]},"properties":{"StopId":21410,"StopName":"1700 S @ 479 E","StreetNum":479,"OnStreet":"E 1700 S","AtStreet":"S 500 E","City":"SALT LAKE CITY","InService":1,"Bench":0,"Shelter":1,"Lighting":1,"Garbage":1,"Bicycle":0,"Transfer":1,"LocationUs":"Bus Stop","UTAStopID":"101157"}},
{"type":"Feature","geometry":{"type":"Point","coordinates":[-111.9026929691411,40.76222598077639]},"properties":{"StopId":21370,"StopName":"400 W @ 320 S","StreetNum":320,"OnStreet":"S 400 W","AtStreet":"","City":"SALT LAKE CITY","InService":1,"Bench":0,"Shelter":0,"Lighting":1,"Garbage":0,"Bicycle":0,"Transfer":0,"LocationUs":"Bus Stop","UTAStopID":"101158"}},
{"type":"Feature","geometry":{"type":"Point","coordinates":[-111.88315398651048,40.73356797654145]},"properties":{"StopId":21411,"StopName":"1700 S @ 273 E","StreetNum":273,"OnStreet":"E 1700 S","AtStreet":"900 E","City":"SALT LAKE CITY","InService":1,"Bench":0,"Shelter":1,"Lighting":1,"Garbage":1,"Bicycle":0,"Transfer":1,"LocationUs":"Bus Stop","UTAStopID":"101159"}},
{"type":"Feature","geometry":{"type":"Point","coordinates":[-111.88783101834552,40.733570019967146]},"properties":{"StopId":21412,"StopName":"1700 S @ 113 E","StreetNum":113,"OnStreet":"E 1700 S","AtStreet":"E 17TH S","City":"SALT LAKE CITY","InService":1,"Bench":0,"Shelter":1,"Lighting":1,"Garbage":1,"Bicycle":0,"Transfer":1,"LocationUs":"Bus Stop","UTAStopID":"101160"}},
{"type":"Feature","geometry":{"type":"Point","coordinates":[-111.85207201384777,40.68716701351002]},"properties":{"StopId":21398,"StopName":"3900 S @ 1377 E","StreetNum":1377,"OnStreet":"E 3900 S","AtStreet":"MONTECITO ST","City":"MILLCREEK","InService":1,"Bench":0,"Shelter":0,"Lighting":0,"Garbage":0,"Bicycle":0,"Transfer":0,"LocationUs":"Bus Stop","UTAStopID":"101162"}},
{"type":"Feature","geometry":{"type":"Point","coordinates":[-111.80852604116726,40.63241798245229]},"properties":{"StopId":21413,"StopName":"6580 S @ 2985 E","StreetNum":2985,"OnStreet":"E 6580 S","AtStreet":"","City":"COTTONWOOD HEIGHTS","InService":1,"Bench":0,"Shelter":0,"Lighting":1,"Garbage":0,"Bicycle":0,"Transfer":1,"LocationUs":"Bus Stop","UTAStopID":"101163"}},
{"type":"Feature","geometry":{"type":"Point","coordinates":[-111.97724895181504,40.703435032316605]},"properties":{"StopId":21480,"StopName":"3600 W @ 3122 S","StreetNum":3122,"OnStreet":"S 3600 W","AtStreet":"3100 S","City":"WEST VALLEY","InService":1,"Bench":0,"Shelter":0,"Lighting":1,"Garbage":0,"Bicycle":0,"Transfer":0,"LocationUs":"Bus Stop","UTAStopID":"101164"}},
{"type":"Feature","geometry":{"type":"Point","coordinates":[-111.97718800693228,40.6974590326363]},"properties":{"StopId":21481,"StopName":"3600 W @ 3460 S","StreetNum":3460,"OnStreet":"S 3600 W","AtStreet":"3500 S","City":"WEST VALLEY","InService":1,"Bench":1,"Shelter":0,"Lighting":1,"Garbage":1,"Bicycle":0,"Transfer":1,"LocationUs":"Bus Stop","UTAStopID":"101165"}},
{"type":"Feature","geometry":{"type":"Point","coordinates":[-111.93902597441475,40.67161404106948]},"properties":{"StopId":21484,"StopName":"REDWOOD RD @ 4585 S","StreetNum":4585,"OnStreet":"S REDWOOD RD","AtStreet":"CONIFER WAY","City":"TAYLORSVILLE","InService":1,"Bench":1,"Shelter":1,"Lighting":1,"Garbage":1,"Bicycle":0,"Transfer":0,"LocationUs":"Bus Stop","UTAStopID":"101168"}},
{"type":"Feature","geometry":{"type":"Point","coordinates":[-112.00572099004427,40.63769197288799]},"properties":{"StopId":21422,"StopName":"COUGAR LN @ 6226 S","StreetNum":6226,"OnStreet":"S COUGAR LN","AtStreet":"6200 S","City":"WEST JORDAN","InService":1,"Bench":1,"Shelter":1,"Lighting":1,"Garbage":1,"Bicycle":0,"Transfer":1,"LocationUs":"Bus Stop","UTAStopID":"101169"}},
{"type":"Feature","geometry":{"type":"Point","coordinates":[-111.79671497287237,40.60058196002179]},"properties":{"StopId":21424,"StopName":"WASATCH BLVD @ 8295 S","StreetNum":8295,"OnStreet":"S WASATCH BLVD","AtStreet":"3500 E","City":"COTTONWOOD HEIGHTS","InService":1,"Bench":0,"Shelter":0,"Lighting":1,"Garbage":0,"Bicycle":0,"Transfer":0,"LocationUs":"Bus Stop","UTAStopID":"101172"}},
{"type":"Feature","geometry":{"type":"Point","coordinates":[-111.79749600213513,40.59978803572929]},"properties":{"StopId":21485,"StopName":"WASATCH BLVD @ 8304 S","StreetNum":8304,"OnStreet":"S WASATCH BLVD","AtStreet":"8350 S","City":"COTTONWOOD HEIGHTS","InService":1,"Bench":0,"Shelter":0,"Lighting":1,"Garbage":0,"Bicycle":0,"Transfer":0,"LocationUs":"Bus Stop","UTAStopID":"101173"}},
{"type":"Feature","geometry":{"type":"Point","coordinates":[-112.00554298631121,40.66819501004617]},"properties":{"StopId":21532,"StopName":"4800 W @ 4667 S","StreetNum":4667,"OnStreet":"S 4800 W","AtStreet":"4660 S","City":"WEST VALLEY","InService":1,"Bench":1,"Shelter":1,"Lighting":1,"Garbage":1,"Bicycle":0,"Transfer":1,"LocationUs":"Bus Stop","UTAStopID":"101181"}},
{"type":"Feature","geometry":{"type":"Point","coordinates":[-112.0335010528564,40.64240698108232]},"properties":{"StopId":21430,"StopName":"COPPER CITY DRIVE @ 5991 S","StreetNum":5991,"OnStreet":"S COPPER CITY DRIVE","AtStreet":"LODESTONE","City":"KEARNS","InService":1,"Bench":0,"Shelter":0,"Lighting":1,"Garbage":0,"Bicycle":0,"Transfer":0,"LocationUs":"Bus Stop","UTAStopID":"101182"}},
{"type":"Feature","geometry":{"type":"Point","coordinates":[-112.02498204807182,40.69593696263881]},"properties":{"StopId":21435,"StopName":"5600 W @ 3534 S","StreetNum":3534,"OnStreet":"S 5600 W","AtStreet":"","City":"KEARNS","InService":1,"Bench":0,"Shelter":0,"Lighting":0,"Garbage":0,"Bicycle":0,"Transfer":1,"LocationUs":"Bus Stop","UTAStopID":"101187"}},
{"type":"Feature","geometry":{"type":"Point","coordinates":[-112.02480703360524,40.66594798407461]},"properties":{"StopId":21436,"StopName":"5600 W @ 4750 S","StreetNum":4750,"OnStreet":"S 5600 W","AtStreet":"","City":"WEST VALLEY","InService":1,"Bench":0,"Shelter":0,"Lighting":0,"Garbage":0,"Bicycle":0,"Transfer":1,"LocationUs":"Bus Stop","UTAStopID":"101188"}},
{"type":"Feature","geometry":{"type":"Point","coordinates":[-112.0247909795006,40.65846103235506]},"properties":{"StopId":21437,"StopName":"5600 W @ 5106 S","StreetNum":5106,"OnStreet":"S 5600 W","AtStreet":"","City":"WEST VALLEY","InService":1,"Bench":0,"Shelter":0,"Lighting":1,"Garbage":1,"Bicycle":0,"Transfer":0,"LocationUs":"Bus Stop","UTAStopID":"101189"}},
{"type":"Feature","geometry":{"type":"Point","coordinates":[-112.03206802134808,40.63848196896818]},"properties":{"StopId":21439,"StopName":"6200 S @ 5945 W","StreetNum":5945,"OnStreet":"W 6200 S","AtStreet":"LODESTONE","City":"WEST VALLEY","InService":1,"Bench":1,"Shelter":0,"Lighting":1,"Garbage":0,"Bicycle":0,"Transfer":0,"LocationUs":"Bus Stop","UTAStopID":"101191"}},
{"type":"Feature","geometry":{"type":"Point","coordinates":[-112.0175639637584,40.62394496575964]},"properties":{"StopId":21440,"StopName":"7000 S @ 5305 W","StreetNum":5305,"OnStreet":"W 7000 S","AtStreet":"S CLERNATES DR","City":"WEST JORDAN","InService":1,"Bench":0,"Shelter":0,"Lighting":1,"Garbage":0,"Bicycle":0,"Transfer":0,"LocationUs":"Bus Stop","UTAStopID":"101192"}},
{"type":"Feature","geometry":{"type":"Point","coordinates":[-112.01371898462337,40.62394698149114]},"properties":{"StopId":21450,"StopName":"7000 S @ 5153 W","StreetNum":5153,"OnStreet":"W 7000 S","AtStreet":"ROSEWOOD LN","City":"WEST JORDAN","InService":1,"Bench":1,"Shelter":1,"Lighting":1,"Garbage":1,"Bicycle":0,"Transfer":0,"LocationUs":"Bus Stop","UTAStopID":"101193"}},
{"type":"Feature","geometry":{"type":"Point","coordinates":[-112.00623401443158,40.62398100358821]},"properties":{"StopId":21441,"StopName":"7000 S @ 4825 W","StreetNum":4825,"OnStreet":"W 7000 S","AtStreet":"ROSEWOOD LN","City":"WEST JORDAN","InService":1,"Bench":1,"Shelter":1,"Lighting":1,"Garbage":1,"Bicycle":0,"Transfer":1,"LocationUs":"Bus Stop","UTAStopID":"101194"}},
{"type":"Feature","geometry":{"type":"Point","coordinates":[-112.0065509953125,40.62411499192525]},"properties":{"StopId":21442,"StopName":"7000 S @ 4848 W","StreetNum":4848,"OnStreet":"W 7000 S","AtStreet":"ROSEWOOD LN","City":"WEST JORDAN","InService":1,"Bench":1,"Shelter":1,"Lighting":1,"Garbage":1,"Bicycle":0,"Transfer":0,"LocationUs":"Bus Stop","UTAStopID":"101195"}},
{"type":"Feature","geometry":{"type":"Point","coordinates":[-112.01336800299752,40.62409095662473]},"properties":{"StopId":21443,"StopName":"7000 S @ 5154 W","StreetNum":5154,"OnStreet":"W 7000 S","AtStreet":"ROSEWOOD LN","City":"WEST JORDAN","InService":1,"Bench":1,"Shelter":1,"Lighting":1,"Garbage":1,"Bicycle":0,"Transfer":0,"LocationUs":"Bus Stop","UTAStopID":"101196"}},
{"type":"Feature","geometry":{"type":"Point","coordinates":[-112.01732897011661,40.624072976527245]},"properties":{"StopId":21451,"StopName":"7000 S @ 5296 W","StreetNum":5296,"OnStreet":"W 7000 S","AtStreet":"5330 W","City":"WEST JORDAN","InService":1,"Bench":0,"Shelter":0,"Lighting":1,"Garbage":0,"Bicycle":0,"Transfer":0,"LocationUs":"Bus Stop","UTAStopID":"101197"}},
{"type":"Feature","geometry":{"type":"Point","coordinates":[-112.01731295053058,40.63008401879609]},"properties":{"StopId":21444,"StopName":"CLEARNATES DR @ 6673 S","StreetNum":6673,"OnStreet":"S CLEARNATES DR","AtStreet":"ROSEWOOD LN","City":"WEST JORDAN","InService":1,"Bench":1,"Shelter":1,"Lighting":1,"Garbage":1,"Bicycle":0,"Transfer":0,"LocationUs":"Bus Stop","UTAStopID":"101198"}},
{"type":"Feature","geometry":{"type":"Point","coordinates":[-112.03233605650455,40.63863199818367]},"properties":{"StopId":21445,"StopName":"6200 S @ 5950 W","StreetNum":5950,"OnStreet":"W 6200 S","AtStreet":"LODESTONE","City":"KEARNS","InService":1,"Bench":1,"Shelter":0,"Lighting":1,"Garbage":0,"Bicycle":0,"Transfer":1,"LocationUs":"Bus Stop","UTAStopID":"101199"}},
{"type":"Feature","geometry":{"type":"Point","coordinates":[-112.02453095466257,40.65808101694306]},"properties":{"StopId":21447,"StopName":"5600 W @ 5107 S","StreetNum":5107,"OnStreet":"S 5600 W","AtStreet":"","City":"KEARNS","InService":1,"Bench":0,"Shelter":0,"Lighting":1,"Garbage":1,"Bicycle":0,"Transfer":0,"LocationUs":"Bus Stop","UTAStopID":"101201"}},
{"type":"Feature","geometry":{"type":"Point","coordinates":[-112.02454597483364,40.66537096160969]},"properties":{"StopId":21448,"StopName":"5600 W @ 4751 S","StreetNum":4751,"OnStreet":"S 5600 W","AtStreet":"","City":"KEARNS","InService":1,"Bench":0,"Shelter":0,"Lighting":1,"Garbage":1,"Bicycle":0,"Transfer":1,"LocationUs":"Bus Stop","UTAStopID":"101202"}},
{"type":"Feature","geometry":{"type":"Point","coordinates":[-112.02468104624099,40.69119296593548]},"properties":{"StopId":21453,"StopName":"5600 W @ 3737 S","StreetNum":3737,"OnStreet":"S 5600 W","AtStreet":"","City":"WEST VALLEY","InService":1,"Bench":0,"Shelter":0,"Lighting":1,"Garbage":1,"Bicycle":0,"Transfer":0,"LocationUs":"Bus Stop","UTAStopID":"101204"}},
{"type":"Feature","geometry":{"type":"Point","coordinates":[-112.02471105319552,40.69719902648554]},"properties":{"StopId":21454,"StopName":"5600 W @ 3455 S","StreetNum":3455,"OnStreet":"S 5600 W","AtStreet":"","City":"WEST VALLEY","InService":1,"Bench":0,"Shelter":0,"Lighting":1,"Garbage":1,"Bicycle":0,"Transfer":1,"LocationUs":"Bus Stop","UTAStopID":"101205"}},
{"type":"Feature","geometry":{"type":"Point","coordinates":[-111.88902694545817,40.749878956810846]},"properties":{"StopId":21500,"StopName":"900 S @ 61 E","StreetNum":61,"OnStreet":"E 900 S","AtStreet":"","City":"SALT LAKE CITY","InService":1,"Bench":0,"Shelter":0,"Lighting":1,"Garbage":0,"Bicycle":0,"Transfer":1,"LocationUs":"Bus Stop","UTAStopID":"101206"}},
{"type":"Feature","geometry":{"type":"Point","coordinates":[-111.88727502456186,40.74970299098017]},"properties":{"StopId":21501,"StopName":"900 S @ 124 E","StreetNum":124,"OnStreet":"E 900 S","AtStreet":"","City":"SALT LAKE CITY","InService":1,"Bench":0,"Shelter":0,"Lighting":1,"Garbage":0,"Bicycle":0,"Transfer":1,"LocationUs":"Bus Stop","UTAStopID":"101207"}},
{"type":"Feature","geometry":{"type":"Point","coordinates":[-112.02701103449742,40.638453997126895]},"properties":{"StopId":21502,"StopName":"6200 S @ 5699 W","StreetNum":5699,"OnStreet":"W 6200 S","AtStreet":"LODESTONE","City":"WEST VALLEY","InService":1,"Bench":1,"Shelter":0,"Lighting":1,"Garbage":0,"Bicycle":0,"Transfer":1,"LocationUs":"Bus Stop","UTAStopID":"101208"}},
{"type":"Feature","geometry":{"type":"Point","coordinates":[-111.92897803900411,40.78251702822635]},"properties":{"StopId":21567,"StopName":"600 N @ 1316 W","StreetNum":1316,"OnStreet":"W 600 N","AtStreet":"LODESTONE","City":"SALT LAKE CITY","InService":1,"Bench":1,"Shelter":0,"Lighting":1,"Garbage":0,"Bicycle":0,"Transfer":0,"LocationUs":"Bus Stop","UTAStopID":"101214"}},
{"type":"Feature","geometry":{"type":"Point","coordinates":[-111.93177095494619,40.782324970884204]},"properties":{"StopId":21508,"StopName":"600 N @ 1425 W","StreetNum":1425,"OnStreet":"W 600 N","AtStreet":"LODESTONE","City":"SALT LAKE CITY","InService":1,"Bench":1,"Shelter":0,"Lighting":1,"Garbage":0,"Bicycle":0,"Transfer":0,"LocationUs":"Bus Stop","UTAStopID":"101215"}},
{"type":"Feature","geometry":{"type":"Point","coordinates":[-111.93234805717555,40.78185502528147]},"properties":{"StopId":21521,"StopName":"CATHERINE STREET @ 565 N","StreetNum":565,"OnStreet":"N CATHERINE STREET","AtStreet":"LODESTONE","City":"SALT LAKE CITY","InService":1,"Bench":1,"Shelter":0,"Lighting":1,"Garbage":0,"Bicycle":0,"Transfer":0,"LocationUs":"Bus Stop","UTAStopID":"101216"}},
{"type":"Feature","geometry":{"type":"Point","coordinates":[-111.92886896714172,40.7823270182193]},"properties":{"StopId":21509,"StopName":"600 N @ 1313 W","StreetNum":1313,"OnStreet":"W 600 N","AtStreet":"LODESTONE","City":"SALT LAKE CITY","InService":1,"Bench":1,"Shelter":0,"Lighting":1,"Garbage":0,"Bicycle":0,"Transfer":0,"LocationUs":"Bus Stop","UTAStopID":"101217"}},
{"type":"Feature","geometry":{"type":"Point","coordinates":[-111.83506295507277,40.712773012625284]},"properties":{"StopId":21492,"StopName":"2700 S @ 1963 E","StreetNum":1963,"OnStreet":"E 2700 S","AtStreet":"4660 S","City":"SALT LAKE CITY","InService":1,"Bench":1,"Shelter":1,"Lighting":1,"Garbage":1,"Bicycle":0,"Transfer":0,"LocationUs":"Bus Stop","UTAStopID":"101225"}},
{"type":"Feature","geometry":{"type":"Point","coordinates":[-111.83820396601054,40.71276502098668]},"properties":{"StopId":21511,"StopName":"2700 S @ 1853 E","StreetNum":1853,"OnStreet":"E 2700 S","AtStreet":"4660 S","City":"SALT LAKE CITY","InService":1,"Bench":1,"Shelter":1,"Lighting":1,"Garbage":1,"Bicycle":0,"Transfer":0,"LocationUs":"Bus Stop","UTAStopID":"101226"}},
{"type":"Feature","geometry":{"type":"Point","coordinates":[-111.8420730333067,40.717235995414555]},"properties":{"StopId":21512,"StopName":"1700 E @ 2501 S","StreetNum":2501,"OnStreet":"S 1700 E","AtStreet":"4660 S","City":"SALT LAKE CITY","InService":1,"Bench":1,"Shelter":1,"Lighting":1,"Garbage":1,"Bicycle":0,"Transfer":0,"LocationUs":"Bus Stop","UTAStopID":"101227"}},
{"type":"Feature","geometry":{"type":"Point","coordinates":[-111.84216905306725,40.71709503200033]},"properties":{"StopId":21513,"StopName":"1700 E @ 2494 S","StreetNum":2494,"OnStreet":"S 1700 E","AtStreet":"4660 S","City":"SALT LAKE CITY","InService":1,"Bench":1,"Shelter":1,"Lighting":1,"Garbage":1,"Bicycle":0,"Transfer":0,"LocationUs":"Bus Stop","UTAStopID":"101228"}},
{"type":"Feature","geometry":{"type":"Point","coordinates":[-112.00743801392173,40.65703499785846]},"properties":{"StopId":21455,"StopName":"PIEPER BLVD @ 5187 S","StreetNum":5187,"OnStreet":"S PIEPER BLVD","AtStreet":"4660 S","City":"KEARNS","InService":1,"Bench":1,"Shelter":1,"Lighting":1,"Garbage":1,"Bicycle":0,"Transfer":0,"LocationUs":"Bus Stop","UTAStopID":"101229"}},
{"type":"Feature","geometry":{"type":"Point","coordinates":[-112.00947602469773,40.66099699884306]},"properties":{"StopId":21456,"StopName":"4980 W @ 4983 S","StreetNum":4983,"OnStreet":"S 4980 W","AtStreet":"W 4985 S","City":"KEARNS","InService":1,"Bench":1,"Shelter":1,"Lighting":1,"Garbage":1,"Bicycle":0,"Transfer":0,"LocationUs":"Bus Stop","UTAStopID":"101230"}},
{"type":"Feature","geometry":{"type":"Point","coordinates":[-112.00758505533139,40.66543104088793]},"properties":{"StopId":21457,"StopName":"4980 W @ 4869 S","StreetNum":4869,"OnStreet":"S 4980 W","AtStreet":"S 4900 W","City":"KEARNS","InService":1,"Bench":1,"Shelter":1,"Lighting":1,"Garbage":1,"Bicycle":0,"Transfer":0,"LocationUs":"Bus Stop","UTAStopID":"101231"}},
{"type":"Feature","geometry":{"type":"Point","coordinates":[-112.01807598896835,40.63490400971774]},"properties":{"StopId":21458,"StopName":"CLERNATES DR @ 6395 S","StreetNum":6395,"OnStreet":"S CLERNATES DR","AtStreet":"ROSEWOOD LN","City":"WEST JORDAN","InService":1,"Bench":1,"Shelter":1,"Lighting":1,"Garbage":1,"Bicycle":0,"Transfer":0,"LocationUs":"Bus Stop","UTAStopID":"101233"}},
{"type":"Feature","geometry":{"type":"Point","coordinates":[-112.01733603830728,40.63365401249469]},"properties":{"StopId":21459,"StopName":"CLERNATES DR @ 6473 S","StreetNum":6473,"OnStreet":"S CLERNATES DR","AtStreet":"ROSEWOOD LN","City":"WEST JORDAN","InService":1,"Bench":1,"Shelter":1,"Lighting":1,"Garbage":1,"Bicycle":0,"Transfer":0,"LocationUs":"Bus Stop","UTAStopID":"101234"}},
{"type":"Feature","geometry":{"type":"Point","coordinates":[-112.01794698446032,40.626487962944104]},"properties":{"StopId":21460,"StopName":"CLERNATES DR @ 6857 S","StreetNum":6857,"OnStreet":"S CLERNATES DR","AtStreet":"ROSEWOOD LN","City":"WEST JORDAN","InService":1,"Bench":1,"Shelter":1,"Lighting":1,"Garbage":1,"Bicycle":0,"Transfer":0,"LocationUs":"Bus Stop","UTAStopID":"101235"}},
{"type":"Feature","geometry":{"type":"Point","coordinates":[-112.00644496411019,40.62668400094556]},"properties":{"StopId":21461,"StopName":"COUGAR LN @ 6865 S","StreetNum":6865,"OnStreet":"S COUGAR LN","AtStreet":"4660 S","City":"WEST JORDAN","InService":1,"Bench":1,"Shelter":1,"Lighting":1,"Garbage":1,"Bicycle":0,"Transfer":0,"LocationUs":"Bus Stop","UTAStopID":"101236"}},
{"type":"Feature","geometry":{"type":"Point","coordinates":[-112.00615601562987,40.626070960539465]},"properties":{"StopId":21462,"StopName":"COUGAR LN @ 6866 S","StreetNum":6866,"OnStreet":"S COUGAR LN","AtStreet":"4660 S","City":"WEST JORDAN","InService":1,"Bench":1,"Shelter":1,"Lighting":1,"Garbage":1,"Bicycle":0,"Transfer":0,"LocationUs":"Bus Stop","UTAStopID":"101237"}},
{"type":"Feature","geometry":{"type":"Point","coordinates":[-112.00740303884771,40.632168013314626]},"properties":{"StopId":21463,"StopName":"COUGAR LN @ 6562 S","StreetNum":6562,"OnStreet":"S COUGAR LN","AtStreet":"4660 S","City":"WEST JORDAN","InService":1,"Bench":1,"Shelter":1,"Lighting":1,"Garbage":1,"Bicycle":0,"Transfer":0,"LocationUs":"Bus Stop","UTAStopID":"101238"}},
{"type":"Feature","geometry":{"type":"Point","coordinates":[-111.99784099155805,40.63850102222849]},"properties":{"StopId":21464,"StopName":"6200 S @ 4485 W","StreetNum":4485,"OnStreet":"W 6200 S","AtStreet":"ROSEWOOD LN","City":"WEST JORDAN","InService":1,"Bench":1,"Shelter":1,"Lighting":1,"Garbage":1,"Bicycle":0,"Transfer":0,"LocationUs":"Bus Stop","UTAStopID":"101239"}},
{"type":"Feature","geometry":{"type":"Point","coordinates":[-111.99775095415941,40.63864900068508]},"properties":{"StopId":21465,"StopName":"6200 S @ 4476 W","StreetNum":4476,"OnStreet":"W 6200 S","AtStreet":"ROSEWOOD LN","City":"KEARNS","InService":1,"Bench":1,"Shelter":1,"Lighting":1,"Garbage":1,"Bicycle":0,"Transfer":0,"LocationUs":"Bus Stop","UTAStopID":"101240"}},
{"type":"Feature","geometry":{"type":"Point","coordinates":[-112.00118300231065,40.63849695804341]},"properties":{"StopId":21466,"StopName":"6200 S @ 4653 W","StreetNum":4653,"OnStreet":"W 6200 S","AtStreet":"ROSEWOOD LN","City":"WEST JORDAN","InService":1,"Bench":1,"Shelter":1,"Lighting":1,"Garbage":1,"Bicycle":0,"Transfer":0,"LocationUs":"Bus Stop","UTAStopID":"101241"}},
{"type":"Feature","geometry":{"type":"Point","coordinates":[-111.99206299442588,40.638497026099785]},"properties":{"StopId":21467,"StopName":"6200 S @ 4215 W","StreetNum":4215,"OnStreet":"W 6200 S","AtStreet":"ROSEWOOD LN","City":"WEST JORDAN","InService":1,"Bench":1,"Shelter":1,"Lighting":1,"Garbage":1,"Bicycle":0,"Transfer":0,"LocationUs":"Bus Stop","UTAStopID":"101242"}},
{"type":"Feature","geometry":{"type":"Point","coordinates":[-111.99144898875554,40.63865598626356]},"properties":{"StopId":21468,"StopName":"6200 S @ 4226 W","StreetNum":4226,"OnStreet":"W 6200 S","AtStreet":"ROSEWOOD LN","City":"KEARNS","InService":1,"Bench":1,"Shelter":1,"Lighting":1,"Garbage":1,"Bicycle":0,"Transfer":0,"LocationUs":"Bus Stop","UTAStopID":"101243"}},
{"type":"Feature","geometry":{"type":"Point","coordinates":[-111.98248301926536,40.638492991187526]},"properties":{"StopId":21469,"StopName":"6200 S @ 3809 W","StreetNum":3809,"OnStreet":"W 6200 S","AtStreet":"","City":"WEST JORDAN","InService":1,"Bench":0,"Shelter":0,"Lighting":0,"Garbage":0,"Bicycle":0,"Transfer":1,"LocationUs":"Bus Stop","UTAStopID":"101244"}},
{"type":"Feature","geometry":{"type":"Point","coordinates":[-111.98242801102404,40.638644983882294]},"properties":{"StopId":21470,"StopName":"6200 S @ 3836 W","StreetNum":3836,"OnStreet":"W 6200 S","AtStreet":"","City":"TAYLORSVILLE","InService":1,"Bench":0,"Shelter":0,"Lighting":0,"Garbage":0,"Bicycle":0,"Transfer":1,"LocationUs":"Bus Stop","UTAStopID":"101245"}},
{"type":"Feature","geometry":{"type":"Point","coordinates":[-111.97887000831112,40.638459984545776]},"properties":{"StopId":21523,"StopName":"6200 S @ 3653 W","StreetNum":3653,"OnStreet":"W 6200 S","AtStreet":"","City":"WEST JORDAN","InService":1,"Bench":0,"Shelter":0,"Lighting":1,"Garbage":0,"Bicycle":0,"Transfer":1,"LocationUs":"Bus Stop","UTAStopID":"101246"}},
{"type":"Feature","geometry":{"type":"Point","coordinates":[-111.9789879968666,40.63865203865534]},"properties":{"StopId":21471,"StopName":"6200 S @ 3690 W","StreetNum":3690,"OnStreet":"W 6200 S","AtStreet":"","City":"TAYLORSVILLE","InService":1,"Bench":0,"Shelter":0,"Lighting":1,"Garbage":0,"Bicycle":0,"Transfer":1,"LocationUs":"Bus Stop","UTAStopID":"101247"}},
{"type":"Feature","geometry":{"type":"Point","coordinates":[-111.96637698407503,40.63849602639702]},"properties":{"StopId":21472,"StopName":"6200 S @ 3185 W","StreetNum":3185,"OnStreet":"W 6200 S","AtStreet":"ROSEWOOD LN","City":"TAYLORSVILLE","InService":1,"Bench":1,"Shelter":1,"Lighting":1,"Garbage":1,"Bicycle":0,"Transfer":1,"LocationUs":"Bus Stop","UTAStopID":"101248"}},
{"type":"Feature","geometry":{"type":"Point","coordinates":[-111.96633194434429,40.63865297292914]},"properties":{"StopId":21473,"StopName":"6200 S @ 3184 W","StreetNum":3184,"OnStreet":"W 6200 S","AtStreet":"ROSEWOOD LN","City":"TAYLORSVILLE","InService":1,"Bench":1,"Shelter":1,"Lighting":1,"Garbage":1,"Bicycle":0,"Transfer":1,"LocationUs":"Bus Stop","UTAStopID":"101249"}},
{"type":"Feature","geometry":{"type":"Point","coordinates":[-111.95693297746536,40.63849900310878]},"properties":{"StopId":21474,"StopName":"6200 S @ 2685 W","StreetNum":2685,"OnStreet":"W 6200 S","AtStreet":"ROSEWOOD LN","City":"TAYLORSVILLE","InService":1,"Bench":1,"Shelter":1,"Lighting":1,"Garbage":1,"Bicycle":0,"Transfer":1,"LocationUs":"Bus Stop","UTAStopID":"101250"}},
{"type":"Feature","geometry":{"type":"Point","coordinates":[-111.95677304920723,40.63864500663894]},"properties":{"StopId":21514,"StopName":"6200 S @ 2684 W","StreetNum":2684,"OnStreet":"W 6200 S","AtStreet":"ROSEWOOD LN","City":"TAYLORSVILLE","InService":1,"Bench":1,"Shelter":1,"Lighting":1,"Garbage":1,"Bicycle":0,"Transfer":1,"LocationUs":"Bus Stop","UTAStopID":"101251"}},
{"type":"Feature","geometry":{"type":"Point","coordinates":[-111.93173694206803,40.63790797127405]},"properties":{"StopId":21524,"StopName":"6235 S @ 1354 W","StreetNum":1354,"OnStreet":"W 6235 S","AtStreet":"ROSEWOOD LN","City":"TAYLORSVILLE","InService":1,"Bench":1,"Shelter":1,"Lighting":1,"Garbage":1,"Bicycle":0,"Transfer":0,"LocationUs":"Bus Stop","UTAStopID":"101253"}},
{"type":"Feature","geometry":{"type":"Point","coordinates":[-111.93058203104522,40.638008991995484]},"properties":{"StopId":21476,"StopName":"6235 S @ 1370 W","StreetNum":1370,"OnStreet":"W 6235 S","AtStreet":"ROSEWOOD LN","City":"TAYLORSVILLE","InService":1,"Bench":1,"Shelter":1,"Lighting":1,"Garbage":1,"Bicycle":0,"Transfer":0,"LocationUs":"Bus Stop","UTAStopID":"101254"}},
{"type":"Feature","geometry":{"type":"Point","coordinates":[-112.00576404759889,40.6681280428081]},"properties":{"StopId":21515,"StopName":"4800 W @ 4688 S","StreetNum":4688,"OnStreet":"S 4800 W","AtStreet":"4660 S","City":"WEST VALLEY","InService":1,"Bench":1,"Shelter":1,"Lighting":1,"Garbage":1,"Bicycle":0,"Transfer":1,"LocationUs":"Bus Stop","UTAStopID":"101257"}},
{"type":"Feature","geometry":{"type":"Point","coordinates":[-111.83947795079395,40.733572036492]},"properties":{"StopId":21493,"StopName":"1700 S @ 1788 E","StreetNum":1788,"OnStreet":"E 1700 S","AtStreet":"4660 S","City":"SALT LAKE CITY","InService":1,"Bench":1,"Shelter":1,"Lighting":1,"Garbage":1,"Bicycle":0,"Transfer":0,"LocationUs":"Bus Stop","UTAStopID":"101258"}},
{"type":"Feature","geometry":{"type":"Point","coordinates":[-111.83937096539539,40.73367199828495]},"properties":{"StopId":21494,"StopName":"1700 S @ 1799 E","StreetNum":1799,"OnStreet":"E 1700 S","AtStreet":"4660 S","City":"SALT LAKE CITY","InService":1,"Bench":1,"Shelter":1,"Lighting":1,"Garbage":1,"Bicycle":0,"Transfer":0,"LocationUs":"Bus Stop","UTAStopID":"101259"}},
{"type":"Feature","geometry":{"type":"Point","coordinates":[-112.02451495802161,40.653586969652366]},"properties":{"StopId":21533,"StopName":"5600 W @ 5389 S","StreetNum":5389,"OnStreet":"S 5600 W","AtStreet":"","City":"KEARNS","InService":1,"Bench":0,"Shelter":0,"Lighting":1,"Garbage":1,"Bicycle":0,"Transfer":0,"LocationUs":"Bus Stop","UTAStopID":"101266"}},
{"type":"Feature","geometry":{"type":"Point","coordinates":[-111.87082502042995,40.5881989829965]},"properties":{"StopId":21529,"StopName":"9000 S @ 765 E","StreetNum":765,"OnStreet":"E 9000 S","AtStreet":"700 E","City":"SANDY","InService":1,"Bench":0,"Shelter":0,"Lighting":1,"Garbage":1,"Bicycle":0,"Transfer":0,"LocationUs":"Bus Stop","UTAStopID":"101267"}},
{"type":"Feature","geometry":{"type":"Point","coordinates":[-111.94214805054612,40.6094130368295]},"properties":{"StopId":21534,"StopName":"7800 S @ 1855 W","StreetNum":1855,"OnStreet":"W 7800 S","AtStreet":"1825 W","City":"WEST JORDAN","InService":1,"Bench":0,"Shelter":0,"Lighting":1,"Garbage":1,"Bicycle":0,"Transfer":0,"LocationUs":"Bus Stop","UTAStopID":"101268"}},
{"type":"Feature","geometry":{"type":"Point","coordinates":[-111.90972601301185,40.79911497803607]},"properties":{"StopId":21543,"StopName":"BECK STREET @ 1445 N","StreetNum":1445,"OnStreet":"N BECK STREET","AtStreet":"EVERETT AVENUE","City":"SALT LAKE CITY","InService":1,"Bench":1,"Shelter":1,"Lighting":1,"Garbage":1,"Bicycle":0,"Transfer":0,"LocationUs":"Bus Stop","UTAStopID":"101270"}},
{"type":"Feature","geometry":{"type":"Point","coordinates":[-111.91742701871947,40.80525401745419]},"properties":{"StopId":21544,"StopName":"BECK STREET @ 1765 N (SALT LAKE)","StreetNum":1765,"OnStreet":"N BECK STREET","AtStreet":"EVERETT AVENUE","City":"SALT LAKE CITY","InService":1,"Bench":1,"Shelter":1,"Lighting":1,"Garbage":1,"Bicycle":0,"Transfer":0,"LocationUs":"Bus Stop","UTAStopID":"101271"}},
{"type":"Feature","geometry":{"type":"Point","coordinates":[-111.90928597282829,40.799175019423934]},"properties":{"StopId":21545,"StopName":"BECK STREET @ 1444 N","StreetNum":1444,"OnStreet":"N BECK STREET","AtStreet":"EVERETT AVENUE","City":"SALT LAKE CITY","InService":1,"Bench":0,"Shelter":0,"Lighting":1,"Garbage":0,"Bicycle":0,"Transfer":0,"LocationUs":"Bus Stop","UTAStopID":"101272"}},
{"type":"Feature","geometry":{"type":"Point","coordinates":[-111.91694095791979,40.805401024472765]},"properties":{"StopId":21546,"StopName":"BECK STREET @ 1778 N","StreetNum":1778,"OnStreet":"N BECK STREET","AtStreet":"EVERETT AVENUE","City":"SALT LAKE CITY","InService":1,"Bench":0,"Shelter":0,"Lighting":1,"Garbage":0,"Bicycle":0,"Transfer":0,"LocationUs":"Bus Stop","UTAStopID":"101273"}},
{"type":"Feature","geometry":{"type":"Point","coordinates":[-111.88812203133553,40.66009197669031]},"properties":{"StopId":21540,"StopName":"STATE ST @ 5131 S","StreetNum":5131,"OnStreet":"S STATE ST","AtStreet":"900 E","City":"MURRAY","InService":1,"Bench":0,"Shelter":0,"Lighting":1,"Garbage":0,"Bicycle":0,"Transfer":0,"LocationUs":"Bus Stop","UTAStopID":"101277"}},
{"type":"Feature","geometry":{"type":"Point","coordinates":[-111.92886900210236,40.74416396201672]},"properties":{"StopId":21541,"StopName":"ILLINOIS AVE @ 1324 W","StreetNum":1324,"OnStreet":"W ILLINOIS AVE","AtStreet":"NAVAJO ST","City":"SALT LAKE CITY","InService":1,"Bench":1,"Shelter":0,"Lighting":1,"Garbage":1,"Bicycle":0,"Transfer":0,"LocationUs":"Bus Stop","UTAStopID":"101278"}},
{"type":"Feature","geometry":{"type":"Point","coordinates":[-111.80990401803227,40.60949696571909]},"properties":{"StopId":21568,"StopName":"BENGAL BLVD @ 2925 E","StreetNum":2925,"OnStreet":"E BENGAL BLVD","AtStreet":"8350 S","City":"COTTONWOOD HEIGHTS","InService":1,"Bench":0,"Shelter":0,"Lighting":1,"Garbage":0,"Bicycle":0,"Transfer":0,"LocationUs":"Bus Stop","UTAStopID":"101280"}},
{"type":"Feature","geometry":{"type":"Point","coordinates":[-111.86546397301767,40.766741018225275]},"properties":{"StopId":21552,"StopName":"900 E @ 118 S","StreetNum":118,"OnStreet":"S 900 E","AtStreet":"900 E","City":"SALT LAKE CITY","InService":1,"Bench":0,"Shelter":0,"Lighting":1,"Garbage":0,"Bicycle":0,"Transfer":0,"LocationUs":"Bus Stop","UTAStopID":"101285"}},
{"type":"Feature","geometry":{"type":"Point","coordinates":[-111.86523900157998,40.76773003140319]},"properties":{"StopId":21553,"StopName":"900 E @ 63 S","StreetNum":63,"OnStreet":"S 900 E","AtStreet":"100 SOUTH","City":"SALT LAKE CITY","InService":1,"Bench":1,"Shelter":1,"Lighting":1,"Garbage":1,"Bicycle":0,"Transfer":0,"LocationUs":"Bus Stop","UTAStopID":"101286"}},
{"type":"Feature","geometry":{"type":"Point","coordinates":[-111.90543494481676,40.69170201752825]},"properties":{"StopId":21554,"StopName":"500 W @ 3653 S","StreetNum":3653,"OnStreet":"S 500 W","AtStreet":"8350 S","City":"SOUTH SALT LAKE","InService":1,"Bench":0,"Shelter":0,"Lighting":1,"Garbage":0,"Bicycle":0,"Transfer":0,"LocationUs":"Bus Stop","UTAStopID":"101287"}},
{"type":"Feature","geometry":{"type":"Point","coordinates":[-111.97527302196987,40.72567595609377]},"properties":{"StopId":21569,"StopName":"FRONTAGE RD @ 3499 W","StreetNum":3499,"OnStreet":"W FRONTAGE RD","AtStreet":"3600 W","City":"WEST VALLEY","InService":1,"Bench":1,"Shelter":0,"Lighting":1,"Garbage":1,"Bicycle":0,"Transfer":0,"LocationUs":"Bus Stop","UTAStopID":"101288"}},
{"type":"Feature","geometry":{"type":"Point","coordinates":[-111.97536296111656,40.72580203538557]},"properties":{"StopId":21556,"StopName":"FRONTAGE RD @ 3498 W","StreetNum":3498,"OnStreet":"W FRONTAGE RD","AtStreet":"3600 W","City":"WEST VALLEY","InService":1,"Bench":1,"Shelter":0,"Lighting":1,"Garbage":1,"Bicycle":0,"Transfer":0,"LocationUs":"Bus Stop","UTAStopID":"101289"}},
{"type":"Feature","geometry":{"type":"Point","coordinates":[-111.90493100461636,40.59461298549941]},"properties":{"StopId":21557,"StopName":"SANDY PARKWAY @ 8621 S","StreetNum":8621,"OnStreet":"S SANDY PARKWAY","AtStreet":"LODESTONE","City":"SANDY","InService":1,"Bench":1,"Shelter":0,"Lighting":1,"Garbage":0,"Bicycle":0,"Transfer":0,"LocationUs":"Bus Stop","UTAStopID":"101290"}},
{"type":"Feature","geometry":{"type":"Point","coordinates":[-111.9674620322918,40.59945296453629]},"properties":{"StopId":21558,"StopName":"3200 W @ 8400 S","StreetNum":8400,"OnStreet":"S 3200 W","AtStreet":"4660 S","City":"WEST JORDAN","InService":1,"Bench":1,"Shelter":1,"Lighting":1,"Garbage":1,"Bicycle":0,"Transfer":0,"LocationUs":"Bus Stop","UTAStopID":"101291"}},
{"type":"Feature","geometry":{"type":"Point","coordinates":[-111.96743100620463,40.596768010364265]},"properties":{"StopId":21559,"StopName":"3200 W @ 8550 S","StreetNum":8550,"OnStreet":"S 3200 W","AtStreet":"4660 S","City":"WEST JORDAN","InService":1,"Bench":1,"Shelter":1,"Lighting":1,"Garbage":1,"Bicycle":0,"Transfer":0,"LocationUs":"Bus Stop","UTAStopID":"101292"}},
{"type":"Feature","geometry":{"type":"Point","coordinates":[-111.95204096604039,40.740378963589585]},"properties":{"StopId":21560,"StopName":"CALIFORNIA AVE @ 2125 W","StreetNum":2125,"OnStreet":"W CALIFORNIA AVE","AtStreet":"3600 W","City":"SALT LAKE CITY","InService":1,"Bench":1,"Shelter":0,"Lighting":1,"Garbage":1,"Bicycle":0,"Transfer":0,"LocationUs":"Bus Stop","UTAStopID":"101293"}},
{"type":"Feature","geometry":{"type":"Point","coordinates":[-111.84526294361542,40.75044804151515]},"properties":{"StopId":21542,"StopName":"GREENWOOD TERRACE @ 849 S","StreetNum":849,"OnStreet":"S GREENWOOD TERRACE","AtStreet":"900 S","City":"SALT LAKE CITY","InService":1,"Bench":1,"Shelter":1,"Lighting":1,"Garbage":1,"Bicycle":0,"Transfer":0,"LocationUs":"Bus Stop","UTAStopID":"101294"}},
{"type":"Feature","geometry":{"type":"Point","coordinates":[-111.86543196815155,40.75433597736963]},"properties":{"StopId":21561,"StopName":"900 E @ 696 S","StreetNum":696,"OnStreet":"S 900 E","AtStreet":"900 S","City":"SALT LAKE CITY","InService":1,"Bench":0,"Shelter":0,"Lighting":1,"Garbage":0,"Bicycle":1,"Transfer":0,"LocationUs":"Bus Stop","UTAStopID":"101295"}},
{"type":"Feature","geometry":{"type":"Point","coordinates":[-111.93852197194059,40.57220098752551]},"properties":{"StopId":21562,"StopName":"REDWOOD RD @ 9843 S","StreetNum":9843,"OnStreet":"S REDWOOD RD","AtStreet":"9800 S","City":"SOUTH JORDAN","InService":1,"Bench":0,"Shelter":0,"Lighting":1,"Garbage":0,"Bicycle":0,"Transfer":0,"LocationUs":"Bus Stop","UTAStopID":"101296"}},
{"type":"Feature","geometry":{"type":"Point","coordinates":[-112.02642202241536,40.63864102752095]},"properties":{"StopId":21563,"StopName":"6200 S @ 5680 W","StreetNum":5680,"OnStreet":"W 6200 S","AtStreet":"LODESTONE","City":"KEARNS","InService":1,"Bench":1,"Shelter":0,"Lighting":1,"Garbage":0,"Bicycle":0,"Transfer":0,"LocationUs":"Bus Stop","UTAStopID":"101297"}},
{"type":"Feature","geometry":{"type":"Point","coordinates":[-111.83402497465956,40.70951401773825]},"properties":{"StopId":21564,"StopName":"2000 E @ 2831 S","StreetNum":2831,"OnStreet":"S 2000 E","AtStreet":"E","City":"MILLCREEK","InService":1,"Bench":1,"Shelter":1,"Lighting":1,"Garbage":1,"Bicycle":0,"Transfer":0,"LocationUs":"Bus Stop","UTAStopID":"101298"}},
{"type":"Feature","geometry":{"type":"Point","coordinates":[-111.84221600448954,40.73127401685667]},"properties":{"StopId":21565,"StopName":"1700 E @ 1797 S","StreetNum":1797,"OnStreet":"S 1700 E","AtStreet":"E","City":"SALT LAKE CITY","InService":1,"Bench":1,"Shelter":1,"Lighting":1,"Garbage":1,"Bicycle":0,"Transfer":0,"LocationUs":"Bus Stop","UTAStopID":"101299"}},
{"type":"Feature","geometry":{"type":"Point","coordinates":[-111.85446097764401,40.74969097907544]},"properties":{"StopId":21572,"StopName":"900 S @ 1268 E","StreetNum":1268,"OnStreet":"E 900 S","AtStreet":"1300 E","City":"SALT LAKE CITY","InService":1,"Bench":0,"Shelter":0,"Lighting":1,"Garbage":0,"Bicycle":0,"Transfer":0,"LocationUs":"Bus Stop","UTAStopID":"101302"}},
{"type":"Feature","geometry":{"type":"Point","coordinates":[-111.85437101511238,40.74988100337009]},"properties":{"StopId":21573,"StopName":"900 S @ 1281 E","StreetNum":1281,"OnStreet":"E 900 S","AtStreet":"1300 E","City":"SALT LAKE CITY","InService":1,"Bench":0,"Shelter":0,"Lighting":1,"Garbage":0,"Bicycle":0,"Transfer":1,"LocationUs":"Bus Stop","UTAStopID":"101303"}},
{"type":"Feature","geometry":{"type":"Point","coordinates":[-112.05754595652888,40.696595967355584]},"properties":{"StopId":21583,"StopName":"3500 S @ 6888 W","StreetNum":6888,"OnStreet":"W 3500 S","AtStreet":"8350 S","City":"WEST VALLEY","InService":1,"Bench":0,"Shelter":0,"Lighting":1,"Garbage":0,"Bicycle":0,"Transfer":0,"LocationUs":"Bus Stop","UTAStopID":"101311"}},
{"type":"Feature","geometry":{"type":"Point","coordinates":[-111.89594600538415,40.56955500322663]},"properties":{"StopId":21582,"StopName":"10000 S @ 173 W","StreetNum":173,"OnStreet":"W 10000 S","AtStreet":"","City":"SANDY","InService":1,"Bench":0,"Shelter":0,"Lighting":1,"Garbage":0,"Bicycle":0,"Transfer":0,"LocationUs":"Bus Stop","UTAStopID":"101312"}},
{"type":"Feature","geometry":{"type":"Point","coordinates":[-111.90415697602776,40.55901403571248]},"properties":{"StopId":21584,"StopName":"SOUTH JORDAN PKWY @ 446 W","StreetNum":446,"OnStreet":"W SOUTH JORDAN PKWY","AtStreet":"400 W","City":"SOUTH JORDAN","InService":1,"Bench":0,"Shelter":0,"Lighting":1,"Garbage":0,"Bicycle":0,"Transfer":0,"LocationUs":"Bus Stop","UTAStopID":"101313"}},
{"type":"Feature","geometry":{"type":"Point","coordinates":[-111.9375219475386,40.638534002326885]},"properties":{"StopId":21585,"StopName":"BENNION BLVD @ 1652 W","StreetNum":1652,"OnStreet":"W BENNION BLVD","AtStreet":"UNNAMED ST","City":"TAYLORSVILLE","InService":1,"Bench":1,"Shelter":1,"Lighting":1,"Garbage":1,"Bicycle":0,"Transfer":1,"LocationUs":"Bus Stop","UTAStopID":"101314"}},
{"type":"Feature","geometry":{"type":"Point","coordinates":[-112.00733802515035,40.628683962544685]},"properties":{"StopId":21593,"StopName":"4800 W @ 6740 S","StreetNum":6740,"OnStreet":"S 4800 W","AtStreet":"400 W","City":"WEST JORDAN","InService":1,"Bench":1,"Shelter":1,"Lighting":1,"Garbage":1,"Bicycle":0,"Transfer":0,"LocationUs":"Bus Stop","UTAStopID":"101322"}},
{"type":"Feature","geometry":{"type":"Point","coordinates":[-112.00711694613122,40.62880399367127]},"properties":{"StopId":21594,"StopName":"4800 W @ 6725 S","StreetNum":6725,"OnStreet":"S 4800 W","AtStreet":"400 W","City":"WEST JORDAN","InService":1,"Bench":1,"Shelter":1,"Lighting":1,"Garbage":1,"Bicycle":0,"Transfer":0,"LocationUs":"Bus Stop","UTAStopID":"101323"}},
{"type":"Feature","geometry":{"type":"Point","coordinates":[-111.9391169912922,40.70810699061896]},"properties":{"StopId":21613,"StopName":"REDWOOD RD @ 2910 S","StreetNum":2910,"OnStreet":"S REDWOOD RD","AtStreet":"REDWOOD RD","City":"WEST VALLEY","InService":1,"Bench":0,"Shelter":0,"Lighting":1,"Garbage":0,"Bicycle":0,"Transfer":0,"LocationUs":"Bus Stop","UTAStopID":"101333"}},
{"type":"Feature","geometry":{"type":"Point","coordinates":[-111.93880095922572,40.707773003246565]},"properties":{"StopId":21614,"StopName":"REDWOOD RD @ 2911 S","StreetNum":2911,"OnStreet":"S REDWOOD RD","AtStreet":"REDWOOD RD","City":"WEST VALLEY","InService":1,"Bench":0,"Shelter":0,"Lighting":0,"Garbage":0,"Bicycle":0,"Transfer":0,"LocationUs":"Bus Stop","UTAStopID":"101334"}},
{"type":"Feature","geometry":{"type":"Point","coordinates":[-111.9388259784632,40.7167350030775]},"properties":{"StopId":21615,"StopName":"REDWOOD RD @ 2499 S","StreetNum":2499,"OnStreet":"S REDWOOD RD","AtStreet":"REDWOOD RD","City":"WEST VALLEY","InService":1,"Bench":0,"Shelter":0,"Lighting":1,"Garbage":0,"Bicycle":0,"Transfer":1,"LocationUs":"Bus Stop","UTAStopID":"101335"}},
{"type":"Feature","geometry":{"type":"Point","coordinates":[-111.9388230537353,40.72043697878385]},"properties":{"StopId":21616,"StopName":"REDWOOD RD @ 2327 S","StreetNum":2327,"OnStreet":"S REDWOOD RD","AtStreet":"REDWOOD RD","City":"WEST VALLEY","InService":1,"Bench":1,"Shelter":0,"Lighting":0,"Garbage":1,"Bicycle":0,"Transfer":1,"LocationUs":"Bus Stop","UTAStopID":"101336"}},
{"type":"Feature","geometry":{"type":"Point","coordinates":[-111.85363605269706,40.713647012539305]},"properties":{"StopId":21619,"StopName":"1300 E @ 2680 S","StreetNum":2680,"OnStreet":"S 1300 E","AtStreet":"400 W","City":"SALT LAKE CITY","InService":1,"Bench":1,"Shelter":1,"Lighting":1,"Garbage":1,"Bicycle":0,"Transfer":0,"LocationUs":"Bus Stop","UTAStopID":"101340"}},
{"type":"Feature","geometry":{"type":"Point","coordinates":[-111.96937795631368,40.63850897917296]},"properties":{"StopId":21620,"StopName":"6200 S @ 3297 W","StreetNum":3297,"OnStreet":"W 6200 S","AtStreet":"REDWWOOD RD","City":"TAYLORSVILLE","InService":1,"Bench":1,"Shelter":1,"Lighting":1,"Garbage":1,"Bicycle":0,"Transfer":0,"LocationUs":"Bus Stop","UTAStopID":"101342"}},
{"type":"Feature","geometry":{"type":"Point","coordinates":[-111.96993896694211,40.638663990821144]},"properties":{"StopId":21621,"StopName":"6200 S @ 3338 W","StreetNum":3338,"OnStreet":"W 6200 S","AtStreet":"REDWWOOD RD","City":"TAYLORSVILLE","InService":1,"Bench":1,"Shelter":1,"Lighting":1,"Garbage":1,"Bicycle":0,"Transfer":0,"LocationUs":"Bus Stop","UTAStopID":"101343"}},
{"type":"Feature","geometry":{"type":"Point","coordinates":[-111.86612501136601,40.62322401158304]},"properties":{"StopId":21625,"StopName":"900 E @ 7048 S","StreetNum":7048,"OnStreet":"S 900 E","AtStreet":"REDWOOD RD","City":"MIDVALE","InService":1,"Bench":1,"Shelter":1,"Lighting":1,"Garbage":1,"Bicycle":0,"Transfer":1,"LocationUs":"Bus Stop","UTAStopID":"101346"}},
{"type":"Feature","geometry":{"type":"Point","coordinates":[-111.86548195380163,40.76848302747689]},"properties":{"StopId":21626,"StopName":"900 E @ 30 S","StreetNum":30,"OnStreet":"S 900 E","AtStreet":"REDWOOD RD","City":"SALT LAKE CITY","InService":1,"Bench":0,"Shelter":0,"Lighting":1,"Garbage":0,"Bicycle":0,"Transfer":0,"LocationUs":"Bus Stop","UTAStopID":"101347"}},
{"type":"Feature","geometry":{"type":"Point","coordinates":[-111.8364330572807,40.734098979730085]},"properties":{"StopId":21637,"StopName":"1900 E @ 1619 S","StreetNum":1619,"OnStreet":"S 1900 E","AtStreet":"400 W","City":"SALT LAKE CITY","InService":1,"Bench":1,"Shelter":1,"Lighting":1,"Garbage":1,"Bicycle":0,"Transfer":0,"LocationUs":"Bus Stop","UTAStopID":"101351"}},
{"type":"Feature","geometry":{"type":"Point","coordinates":[-111.87999396588492,40.733446986137224]},"properties":{"StopId":21638,"StopName":"1700 S @ 380 E","StreetNum":380,"OnStreet":"E 1700 S","AtStreet":"REDWOOD RD","City":"SALT LAKE CITY","InService":1,"Bench":1,"Shelter":1,"Lighting":1,"Garbage":1,"Bicycle":0,"Transfer":0,"LocationUs":"Bus Stop","UTAStopID":"101352"}},
{"type":"Feature","geometry":{"type":"Point","coordinates":[-111.87933701853424,40.7335609958967]},"properties":{"StopId":21639,"StopName":"1700 S @ 405 E","StreetNum":405,"OnStreet":"E 1700 S","AtStreet":"REDWOOD RD","City":"SALT LAKE CITY","InService":1,"Bench":1,"Shelter":1,"Lighting":1,"Garbage":1,"Bicycle":0,"Transfer":0,"LocationUs":"Bus Stop","UTAStopID":"101353"}},
{"type":"Feature","geometry":{"type":"Point","coordinates":[-111.7953889598665,40.69555198527169]},"properties":{"StopId":21641,"StopName":"WASATCH BLVD @ 3491 S","StreetNum":3491,"OnStreet":"S WASATCH BLVD","AtStreet":"REDWOOD RD","City":"MILLCREEK","InService":1,"Bench":1,"Shelter":1,"Lighting":1,"Garbage":1,"Bicycle":0,"Transfer":0,"LocationUs":"Bus Stop","UTAStopID":"101355"}},
{"type":"Feature","geometry":{"type":"Point","coordinates":[-111.93911801037903,40.702955011359265]},"properties":{"StopId":21632,"StopName":"REDWOOD RD @ 3140 S","StreetNum":3140,"OnStreet":"S REDWOOD RD","AtStreet":"3100 S","City":"WEST VALLEY","InService":1,"Bench":0,"Shelter":0,"Lighting":1,"Garbage":0,"Bicycle":0,"Transfer":0,"LocationUs":"Bus Stop","UTAStopID":"101356"}},
{"type":"Feature","geometry":{"type":"Point","coordinates":[-111.9391149510622,40.71338797549349]},"properties":{"StopId":21642,"StopName":"REDWOOD RD @ 2650 S","StreetNum":2650,"OnStreet":"S REDWOOD RD","AtStreet":"3100 S","City":"WEST VALLEY","InService":1,"Bench":0,"Shelter":0,"Lighting":1,"Garbage":1,"Bicycle":0,"Transfer":0,"LocationUs":"Bus Stop","UTAStopID":"101358"}},
{"type":"Feature","geometry":{"type":"Point","coordinates":[-111.86545700509393,40.6755970003087]},"properties":{"StopId":21643,"StopName":"900 E @ 4409 S","StreetNum":4409,"OnStreet":"S 900 E","AtStreet":"4500 S","City":"MILLCREEK","InService":1,"Bench":1,"Shelter":1,"Lighting":1,"Garbage":1,"Bicycle":0,"Transfer":1,"LocationUs":"Bus Stop","UTAStopID":"101359"}},
{"type":"Feature","geometry":{"type":"Point","coordinates":[-111.86521695096937,40.764613992987755]},"properties":{"StopId":21649,"StopName":"900 E @ 213 S","StreetNum":213,"OnStreet":"S 900 E","AtStreet":"200 S","City":"SALT LAKE CITY","InService":1,"Bench":1,"Shelter":1,"Lighting":1,"Garbage":1,"Bicycle":0,"Transfer":1,"LocationUs":"Bus Stop","UTAStopID":"101360"}},
{"type":"Feature","geometry":{"type":"Point","coordinates":[-111.83434596501708,40.57322895926069]},"properties":{"StopId":21650,"StopName":"9800 S @ 1991 E","StreetNum":1991,"OnStreet":"E 9800 S","AtStreet":"HIGHLAND DR","City":"SANDY","InService":1,"Bench":0,"Shelter":0,"Lighting":1,"Garbage":1,"Bicycle":0,"Transfer":0,"LocationUs":"Bus Stop","UTAStopID":"101361"}},
{"type":"Feature","geometry":{"type":"Point","coordinates":[-111.82391694695112,40.573234987957285]},"properties":{"StopId":21651,"StopName":"9800 S @ 2401 E","StreetNum":2401,"OnStreet":"E 9800 S","AtStreet":"HIGHLAND DR","City":"SANDY","InService":1,"Bench":0,"Shelter":0,"Lighting":1,"Garbage":1,"Bicycle":0,"Transfer":0,"LocationUs":"Bus Stop","UTAStopID":"101362"}},
{"type":"Feature","geometry":{"type":"Point","coordinates":[-111.92925700549192,40.55573395878641]},"properties":{"StopId":21645,"StopName":"1300 W @ 10770 S","StreetNum":10770,"OnStreet":"S 1300 W","AtStreet":"10775 SOUTH","City":"SOUTH JORDAN","InService":1,"Bench":1,"Shelter":1,"Lighting":1,"Garbage":1,"Bicycle":0,"Transfer":0,"LocationUs":"Bus Stop","UTAStopID":"101364"}},
{"type":"Feature","geometry":{"type":"Point","coordinates":[-111.93913303893996,40.7176069602326]},"properties":{"StopId":21702,"StopName":"REDWOOD RD @ 2470 S","StreetNum":2470,"OnStreet":"S REDWOOD RD","AtStreet":"PARKWAY BLVD","City":"WEST VALLEY","InService":1,"Bench":0,"Shelter":0,"Lighting":1,"Garbage":0,"Bicycle":0,"Transfer":1,"LocationUs":"Bus Stop","UTAStopID":"101367"}},
{"type":"Feature","geometry":{"type":"Point","coordinates":[-111.81807201667195,40.57587096234456]},"properties":{"StopId":21735,"StopName":"MT JORDAN RD @ 9658 S","StreetNum":9658,"OnStreet":"S MT JORDAN RD","AtStreet":"MONTE BELLO RD","City":"SANDY","InService":1,"Bench":0,"Shelter":0,"Lighting":1,"Garbage":1,"Bicycle":0,"Transfer":0,"LocationUs":"Bus Stop","UTAStopID":"101368"}},
{"type":"Feature","geometry":{"type":"Point","coordinates":[-111.81831897873964,40.57320703380458]},"properties":{"StopId":21736,"StopName":"9800 S @ 2567 E","StreetNum":2567,"OnStreet":"E 9800 S","AtStreet":"MONTE BELLO DR","City":"SANDY","InService":1,"Bench":0,"Shelter":0,"Lighting":1,"Garbage":1,"Bicycle":0,"Transfer":0,"LocationUs":"Bus Stop","UTAStopID":"101369"}},
{"type":"Feature","geometry":{"type":"Point","coordinates":[-111.92933099131727,40.637088025709104]},"properties":{"StopId":21737,"StopName":"1300 W @ 6286 S","StreetNum":6286,"OnStreet":"S 1300 W","AtStreet":"REDWWOOD RD","City":"TAYLORSVILLE","InService":1,"Bench":1,"Shelter":1,"Lighting":1,"Garbage":1,"Bicycle":0,"Transfer":0,"LocationUs":"Bus Stop","UTAStopID":"101370"}},
{"type":"Feature","geometry":{"type":"Point","coordinates":[-111.92931897330149,40.6333560279623]},"properties":{"StopId":21738,"StopName":"1300 W @ 6500 S","StreetNum":6500,"OnStreet":"S 1300 W","AtStreet":"REDWWOOD RD","City":"TAYLORSVILLE","InService":1,"Bench":1,"Shelter":1,"Lighting":1,"Garbage":1,"Bicycle":0,"Transfer":0,"LocationUs":"Bus Stop","UTAStopID":"101371"}},
{"type":"Feature","geometry":{"type":"Point","coordinates":[-111.92396094422708,40.63033203319354]},"properties":{"StopId":21739,"StopName":"WINCHESTER DR @ 1198 W","StreetNum":1198,"OnStreet":"W WINCHESTER DR","AtStreet":"1200 W","City":"MURRAY","InService":1,"Bench":1,"Shelter":1,"Lighting":1,"Garbage":1,"Bicycle":0,"Transfer":0,"LocationUs":"Bus Stop","UTAStopID":"101372"}},
{"type":"Feature","geometry":{"type":"Point","coordinates":[-111.91729594651248,40.63098199052639]},"properties":{"StopId":21740,"StopName":"WINCHESTER DR @ 990 W","StreetNum":990,"OnStreet":"W WINCHESTER DR","AtStreet":"1200 W","City":"MURRAY","InService":1,"Bench":1,"Shelter":1,"Lighting":1,"Garbage":1,"Bicycle":0,"Transfer":0,"LocationUs":"Bus Stop","UTAStopID":"101373"}},
{"type":"Feature","geometry":{"type":"Point","coordinates":[-111.91083194466196,40.63172700129365]},"properties":{"StopId":21741,"StopName":"WINCHESTER DR @ 715 W","StreetNum":715,"OnStreet":"W WINCHESTER DR","AtStreet":"1200 W","City":"MURRAY","InService":1,"Bench":1,"Shelter":1,"Lighting":1,"Garbage":1,"Bicycle":0,"Transfer":0,"LocationUs":"Bus Stop","UTAStopID":"101374"}},
{"type":"Feature","geometry":{"type":"Point","coordinates":[-111.9108789948931,40.63161303121833]},"properties":{"StopId":21742,"StopName":"WINCHESTER DR @ 716 W","StreetNum":716,"OnStreet":"W WINCHESTER DR","AtStreet":"1200 W","City":"MURRAY","InService":1,"Bench":1,"Shelter":1,"Lighting":1,"Garbage":1,"Bicycle":0,"Transfer":0,"LocationUs":"Bus Stop","UTAStopID":"101375"}},
{"type":"Feature","geometry":{"type":"Point","coordinates":[-111.91745303838098,40.631072991040824]},"properties":{"StopId":21743,"StopName":"WINCHESTER DR @ 991 W","StreetNum":991,"OnStreet":"W WINCHESTER DR","AtStreet":"1200 W","City":"MURRAY","InService":1,"Bench":1,"Shelter":1,"Lighting":1,"Garbage":1,"Bicycle":0,"Transfer":0,"LocationUs":"Bus Stop","UTAStopID":"101376"}},
{"type":"Feature","geometry":{"type":"Point","coordinates":[-111.92476400878708,40.63034596452136]},"properties":{"StopId":21744,"StopName":"WINCHESTER DR @ 1225 W","StreetNum":1225,"OnStreet":"W WINCHESTER DR","AtStreet":"1200 W","City":"MURRAY","InService":1,"Bench":1,"Shelter":1,"Lighting":1,"Garbage":1,"Bicycle":0,"Transfer":0,"LocationUs":"Bus Stop","UTAStopID":"101377"}},
{"type":"Feature","geometry":{"type":"Point","coordinates":[-111.92916105861772,40.63371899521927]},"properties":{"StopId":21745,"StopName":"1300 W @ 6471 S","StreetNum":6471,"OnStreet":"S 1300 W","AtStreet":"1200 W","City":"TAYLORSVILLE","InService":1,"Bench":1,"Shelter":1,"Lighting":1,"Garbage":1,"Bicycle":0,"Transfer":0,"LocationUs":"Bus Stop","UTAStopID":"101378"}},
{"type":"Feature","geometry":{"type":"Point","coordinates":[-111.83546301471188,40.76146902553327]},"properties":{"StopId":21754,"StopName":"MARIO CAPECCHI DR @ 424 S","StreetNum":424,"OnStreet":"S MARIO CAPECCHI DR","AtStreet":"S. CAMPUS DR.","City":"SALT LAKE CITY","InService":1,"Bench":1,"Shelter":1,"Lighting":1,"Garbage":1,"Bicycle":0,"Transfer":0,"LocationUs":"Bus Stop","UTAStopID":"101379"}},
{"type":"Feature","geometry":{"type":"Point","coordinates":[-111.85134902694995,40.7259919833438]},"properties":{"StopId":21774,"StopName":"2100 S @ 1383 E","StreetNum":1383,"OnStreet":"E 2100 S","AtStreet":"1400 E","City":"SALT LAKE CITY","InService":1,"Bench":1,"Shelter":1,"Lighting":1,"Garbage":1,"Bicycle":0,"Transfer":0,"LocationUs":"Bus Stop","UTAStopID":"101382"}},
{"type":"Feature","geometry":{"type":"Point","coordinates":[-111.85482603336825,40.72531100541112]},"properties":{"StopId":21775,"StopName":"2100 S @ 1266 E","StreetNum":1266,"OnStreet":"E 2100 S","AtStreet":"E 21ST S","City":"SALT LAKE CITY","InService":1,"Bench":0,"Shelter":0,"Lighting":1,"Garbage":0,"Bicycle":0,"Transfer":1,"LocationUs":"Bus Stop","UTAStopID":"101383"}},
{"type":"Feature","geometry":{"type":"Point","coordinates":[-111.8539470024603,40.74426500875235]},"properties":{"StopId":21776,"StopName":"1300 E @ 1134 S","StreetNum":1134,"OnStreet":"S 1300 E","AtStreet":"HARVARD AVE","City":"SALT LAKE CITY","InService":1,"Bench":1,"Shelter":1,"Lighting":1,"Garbage":1,"Bicycle":0,"Transfer":0,"LocationUs":"Bus Stop","UTAStopID":"101384"}},
{"type":"Feature","geometry":{"type":"Point","coordinates":[-112.02041200559268,40.68199795549772]},"properties":{"StopId":21782,"StopName":"4100 S @ 5417 W","StreetNum":5417,"OnStreet":"W 4100 S","AtStreet":"5400 W","City":"WEST VALLEY","InService":1,"Bench":1,"Shelter":1,"Lighting":1,"Garbage":1,"Bicycle":0,"Transfer":0,"LocationUs":"Bus Stop","UTAStopID":"101385"}},
{"type":"Feature","geometry":{"type":"Point","coordinates":[-111.9390769920083,40.695812033926465]},"properties":{"StopId":21777,"StopName":"REDWOOD RD @ 3538 S","StreetNum":3538,"OnStreet":"S REDWOOD RD","AtStreet":"3500 S","City":"WEST VALLEY","InService":1,"Bench":0,"Shelter":0,"Lighting":1,"Garbage":0,"Bicycle":0,"Transfer":1,"LocationUs":"Bus Stop","UTAStopID":"101386"}},
{"type":"Feature","geometry":{"type":"Point","coordinates":[-111.98759200345806,40.66759702209908]},"properties":{"StopId":21779,"StopName":"4715 S @ 4036 W","StreetNum":4036,"OnStreet":"W 4715 S","AtStreet":"4000 W","City":"WEST VALLEY","InService":1,"Bench":0,"Shelter":0,"Lighting":1,"Garbage":0,"Bicycle":0,"Transfer":1,"LocationUs":"Bus Stop","UTAStopID":"101388"}},
{"type":"Feature","geometry":{"type":"Point","coordinates":[-111.89408102463845,40.70288696740663]},"properties":{"StopId":21783,"StopName":"WEST TEMPLE @ 3112 S","StreetNum":3112,"OnStreet":"S WEST TEMPLE","AtStreet":"GREGSON AVE","City":"SOUTH SALT LAKE","InService":1,"Bench":1,"Shelter":1,"Lighting":1,"Garbage":1,"Bicycle":0,"Transfer":0,"LocationUs":"Bus Stop","UTAStopID":"101389"}},
{"type":"Feature","geometry":{"type":"Point","coordinates":[-111.96432094105862,40.63865095639974]},"properties":{"StopId":21785,"StopName":"BENNION BLVD @ 3008 W","StreetNum":3008,"OnStreet":"W BENNION BLVD","AtStreet":"W 6200 S","City":"TAYLORSVILLE","InService":1,"Bench":1,"Shelter":1,"Lighting":1,"Garbage":1,"Bicycle":0,"Transfer":0,"LocationUs":"Bus Stop","UTAStopID":"101391"}},
{"type":"Feature","geometry":{"type":"Point","coordinates":[-111.96378100845675,40.6384970026934]},"properties":{"StopId":21786,"StopName":"BENNION BLVD @ 2899 W","StreetNum":2899,"OnStreet":"W BENNION BLVD","AtStreet":"W 6200 S","City":"TAYLORSVILLE","InService":1,"Bench":1,"Shelter":1,"Lighting":1,"Garbage":1,"Bicycle":0,"Transfer":0,"LocationUs":"Bus Stop","UTAStopID":"101392"}},
{"type":"Feature","geometry":{"type":"Point","coordinates":[-111.85658896901194,40.725479006884804]},"properties":{"StopId":21780,"StopName":"2100 S @ 1205 E","StreetNum":1205,"OnStreet":"E 2100 S","AtStreet":"1200 E","City":"SALT LAKE CITY","InService":1,"Bench":1,"Shelter":1,"Lighting":1,"Garbage":1,"Bicycle":0,"Transfer":0,"LocationUs":"Bus Stop","UTAStopID":"101397"}},
{"type":"Feature","geometry":{"type":"Point","coordinates":[-111.92643105339603,40.699537986189945]},"properties":{"StopId":21787,"StopName":"3300 S @ 1226 W","StreetNum":1226,"OnStreet":"W 3300 S","AtStreet":"1200 W","City":"WEST VALLEY","InService":1,"Bench":1,"Shelter":1,"Lighting":1,"Garbage":1,"Bicycle":0,"Transfer":0,"LocationUs":"Bus Stop","UTAStopID":"101398"}},
{"type":"Feature","geometry":{"type":"Point","coordinates":[-112.06457304290231,40.69657804012241]},"properties":{"StopId":21788,"StopName":"3500 S @ 7250 W","StreetNum":7250,"OnStreet":"W 3500 S","AtStreet":"7200 W","City":"MAGNA","InService":1,"Bench":1,"Shelter":1,"Lighting":1,"Garbage":1,"Bicycle":0,"Transfer":0,"LocationUs":"Bus Stop","UTAStopID":"101399"}},
{"type":"Feature","geometry":{"type":"Point","coordinates":[-112.08285599531169,40.69661103416863]},"properties":{"StopId":21789,"StopName":"3500 S @ 8010 W","StreetNum":8010,"OnStreet":"W 3500 S","AtStreet":"8000 W","City":"MAGNA","InService":1,"Bench":1,"Shelter":1,"Lighting":1,"Garbage":1,"Bicycle":0,"Transfer":0,"LocationUs":"Bus Stop","UTAStopID":"101400"}},
{"type":"Feature","geometry":{"type":"Point","coordinates":[-112.04302700114869,40.696451956452876]},"properties":{"StopId":21790,"StopName":"3500 S @ 6361 W","StreetNum":6361,"OnStreet":"W 3500 S","AtStreet":"6400 W","City":"WEST VALLEY","InService":1,"Bench":1,"Shelter":1,"Lighting":1,"Garbage":1,"Bicycle":0,"Transfer":0,"LocationUs":"Bus Stop","UTAStopID":"101401"}},
{"type":"Feature","geometry":{"type":"Point","coordinates":[-112.02329796062612,40.69648097257919]},"properties":{"StopId":21791,"StopName":"3500 S @ 5551 W","StreetNum":5551,"OnStreet":"W 3500 S","AtStreet":"5600 W","City":"WEST VALLEY","InService":1,"Bench":1,"Shelter":1,"Lighting":1,"Garbage":1,"Bicycle":0,"Transfer":1,"LocationUs":"Bus Stop","UTAStopID":"101402"}},
{"type":"Feature","geometry":{"type":"Point","coordinates":[-111.92604102054875,40.69932301914636]},"properties":{"StopId":21792,"StopName":"3300 S @ 1219 W","StreetNum":1219,"OnStreet":"W 3300 S","AtStreet":"1200 W","City":"WEST VALLEY","InService":1,"Bench":1,"Shelter":1,"Lighting":1,"Garbage":1,"Bicycle":0,"Transfer":0,"LocationUs":"Bus Stop","UTAStopID":"101403"}},
{"type":"Feature","geometry":{"type":"Point","coordinates":[-111.84562505333703,40.68875497337433]},"properties":{"StopId":21821,"StopName":"HIGHLAND DR @ 3795 S","StreetNum":3795,"OnStreet":"S HIGHLAND DR","AtStreet":"3900 S","City":"MILLCREEK","InService":1,"Bench":1,"Shelter":1,"Lighting":1,"Garbage":1,"Bicycle":0,"Transfer":1,"LocationUs":"Bus Stop","UTAStopID":"101408"}},
{"type":"Feature","geometry":{"type":"Point","coordinates":[-111.90467300059748,40.76513002136726]},"properties":{"StopId":21817,"StopName":"200 S @ 460 W","StreetNum":460,"OnStreet":"W 200 S","AtStreet":"6020 S","City":"SALT LAKE CITY","InService":1,"Bench":0,"Shelter":0,"Lighting":1,"Garbage":0,"Bicycle":0,"Transfer":1,"LocationUs":"Bus Stop","UTAStopID":"101409"}},
{"type":"Feature","geometry":{"type":"Point","coordinates":[-112.09081497928196,40.6966189775438]},"properties":{"StopId":21823,"StopName":"3500 S @ 8370 W","StreetNum":8370,"OnStreet":"W 3500 S","AtStreet":"1200 W","City":"MAGNA","InService":1,"Bench":1,"Shelter":1,"Lighting":1,"Garbage":1,"Bicycle":0,"Transfer":1,"LocationUs":"Bus Stop","UTAStopID":"101412"}},
{"type":"Feature","geometry":{"type":"Point","coordinates":[-112.09124799744929,40.69637598036097]},"properties":{"StopId":21824,"StopName":"3500 S @ 8385 W","StreetNum":8385,"OnStreet":"W 3500 S","AtStreet":"1200 W","City":"MAGNA","InService":1,"Bench":1,"Shelter":1,"Lighting":1,"Garbage":1,"Bicycle":0,"Transfer":1,"LocationUs":"Bus Stop","UTAStopID":"101413"}},
{"type":"Feature","geometry":{"type":"Point","coordinates":[-112.00468596197915,40.69649401679122]},"properties":{"StopId":21825,"StopName":"3500 S @ 4785 W","StreetNum":4785,"OnStreet":"W 3500 S","AtStreet":"4800 W","City":"WEST VALLEY","InService":1,"Bench":1,"Shelter":1,"Lighting":1,"Garbage":1,"Bicycle":0,"Transfer":1,"LocationUs":"Bus Stop","UTAStopID":"101414"}},
{"type":"Feature","geometry":{"type":"Point","coordinates":[-111.82796703565361,40.63845098703767]},"properties":{"StopId":21831,"StopName":"6200 S @ 2210 E","StreetNum":2210,"OnStreet":"E 6200 S","AtStreet":"4800 W","City":"HOLLADAY","InService":1,"Bench":1,"Shelter":1,"Lighting":1,"Garbage":1,"Bicycle":0,"Transfer":0,"LocationUs":"Bus Stop","UTAStopID":"101418"}},
{"type":"Feature","geometry":{"type":"Point","coordinates":[-111.82923103935964,40.63856101168037]},"properties":{"StopId":21832,"StopName":"6200 S @ 2157 E","StreetNum":2157,"OnStreet":"E 6200 S","AtStreet":"4800 W","City":"HOLLADAY","InService":1,"Bench":1,"Shelter":1,"Lighting":1,"Garbage":1,"Bicycle":0,"Transfer":0,"LocationUs":"Bus Stop","UTAStopID":"101419"}},
{"type":"Feature","geometry":{"type":"Point","coordinates":[-111.99839800080657,40.5382409588705]},"properties":{"StopId":21833,"StopName":"KESTREL RISE RD @ 11685 S","StreetNum":11685,"OnStreet":"S KESTREL RISE RD","AtStreet":"CHINA CLAY DR","City":"SOUTH JORDAN","InService":1,"Bench":1,"Shelter":0,"Lighting":1,"Garbage":0,"Bicycle":0,"Transfer":0,"LocationUs":"Bus Stop","UTAStopID":"101420"}},
{"type":"Feature","geometry":{"type":"Point","coordinates":[-111.99851395893076,40.53826500106618]},"properties":{"StopId":21834,"StopName":"KESTREL RISE RD @ 11684 S","StreetNum":11684,"OnStreet":"S KESTREL RISE RD","AtStreet":"MONTE BELLO DR","City":"SOUTH JORDAN","InService":1,"Bench":0,"Shelter":0,"Lighting":1,"Garbage":1,"Bicycle":0,"Transfer":0,"LocationUs":"Bus Stop","UTAStopID":"101421"}},
{"type":"Feature","geometry":{"type":"Point","coordinates":[-111.99851296542708,40.54154599443279]},"properties":{"StopId":21835,"StopName":"KESTREL RISE RD @ 11558 S","StreetNum":11558,"OnStreet":"S KESTREL RISE RD","AtStreet":"MONTE BELLO DR","City":"SOUTH JORDAN","InService":1,"Bench":0,"Shelter":0,"Lighting":1,"Garbage":1,"Bicycle":0,"Transfer":0,"LocationUs":"Bus Stop","UTAStopID":"101422"}},
{"type":"Feature","geometry":{"type":"Point","coordinates":[-111.99839504742152,40.541620975280196]},"properties":{"StopId":21836,"StopName":"KESTREL RISE RD @ 11551 S","StreetNum":11551,"OnStreet":"S KESTREL RISE RD","AtStreet":"MONTE BELLO DR","City":"SOUTH JORDAN","InService":1,"Bench":0,"Shelter":0,"Lighting":1,"Garbage":1,"Bicycle":0,"Transfer":0,"LocationUs":"Bus Stop","UTAStopID":"101423"}},
{"type":"Feature","geometry":{"type":"Point","coordinates":[-112.00029399567649,40.54462103563556]},"properties":{"StopId":21837,"StopName":"KESTREL RISE RD @ 11368 S","StreetNum":11368,"OnStreet":"S KESTREL RISE RD","AtStreet":"CHINA CLAY DR","City":"SOUTH JORDAN","InService":1,"Bench":1,"Shelter":0,"Lighting":1,"Garbage":0,"Bicycle":0,"Transfer":0,"LocationUs":"Bus Stop","UTAStopID":"101424"}},
{"type":"Feature","geometry":{"type":"Point","coordinates":[-112.00025300084313,40.54473102689852]},"properties":{"StopId":21838,"StopName":"KESTREL RISE RD @ 11351 S","StreetNum":11351,"OnStreet":"S KESTREL RISE RD","AtStreet":"MONTE BELLO DR","City":"SOUTH JORDAN","InService":1,"Bench":0,"Shelter":0,"Lighting":1,"Garbage":1,"Bicycle":0,"Transfer":0,"LocationUs":"Bus Stop","UTAStopID":"101425"}},
{"type":"Feature","geometry":{"type":"Point","coordinates":[-111.88808795528347,40.68641397540165]},"properties":{"StopId":21859,"StopName":"STATE ST @ 3925 S","StreetNum":3925,"OnStreet":"S STATE ST","AtStreet":"3900 S","City":"MILLCREEK","InService":1,"Bench":1,"Shelter":1,"Lighting":1,"Garbage":1,"Bicycle":0,"Transfer":1,"LocationUs":"Bus Stop","UTAStopID":"101426"}},
{"type":"Feature","geometry":{"type":"Point","coordinates":[-111.91957905921365,40.68677802941998]},"properties":{"StopId":21860,"StopName":"3900 S @ 950 W","StreetNum":950,"OnStreet":"W 3900 S","AtStreet":"4800 W","City":"SOUTH SALT LAKE","InService":1,"Bench":0,"Shelter":1,"Lighting":1,"Garbage":0,"Bicycle":0,"Transfer":0,"LocationUs":"Bus Stop","UTAStopID":"101427"}},
{"type":"Feature","geometry":{"type":"Point","coordinates":[-111.91670595107192,40.751696977444645]},"properties":{"StopId":21856,"StopName":"900 W @ 805 S","StreetNum":805,"OnStreet":"S 900 W","AtStreet":"REDWOOD RD","City":"SALT LAKE CITY","InService":1,"Bench":0,"Shelter":0,"Lighting":1,"Garbage":0,"Bicycle":0,"Transfer":0,"LocationUs":"Bus Stop","UTAStopID":"101429"}},
{"type":"Feature","geometry":{"type":"Point","coordinates":[-111.9151480090001,40.75204400618095]},"properties":{"StopId":21857,"StopName":"800 S @ 836 W","StreetNum":836,"OnStreet":"W 800 S","AtStreet":"REDWOOD RD","City":"SALT LAKE CITY","InService":1,"Bench":1,"Shelter":1,"Lighting":1,"Garbage":1,"Bicycle":0,"Transfer":0,"LocationUs":"Bus Stop","UTAStopID":"101430"}},
{"type":"Feature","geometry":{"type":"Point","coordinates":[-112.08276094659199,40.69640599210964]},"properties":{"StopId":21858,"StopName":"3500 S @ 8013 W","StreetNum":8013,"OnStreet":"W 3500 S","AtStreet":"8000 W","City":"MAGNA","InService":1,"Bench":1,"Shelter":1,"Lighting":1,"Garbage":1,"Bicycle":0,"Transfer":0,"LocationUs":"Bus Stop","UTAStopID":"101431"}},
{"type":"Feature","geometry":{"type":"Point","coordinates":[-112.1044839519362,40.696489002183036]},"properties":{"StopId":21873,"StopName":"3500 S @ 8927 W","StreetNum":8927,"OnStreet":"W 3500 S","AtStreet":"8000 W","City":"MAGNA","InService":1,"Bench":1,"Shelter":1,"Lighting":1,"Garbage":1,"Bicycle":0,"Transfer":0,"LocationUs":"Bus Stop","UTAStopID":"101437"}},
{"type":"Feature","geometry":{"type":"Point","coordinates":[-111.83415698288742,40.627663964129]},"properties":{"StopId":21879,"StopName":"HIGHLAND BLVD @ 6800 S","StreetNum":6800,"OnStreet":"S HIGHLAND BLVD","AtStreet":"LA CRESSA","City":"COTTONWOOD HEIGHTS","InService":1,"Bench":1,"Shelter":1,"Lighting":1,"Garbage":1,"Bicycle":0,"Transfer":0,"LocationUs":"Bus Stop","UTAStopID":"101440"}},
{"type":"Feature","geometry":{"type":"Point","coordinates":[-111.83383104555331,40.62720201084416]},"properties":{"StopId":21880,"StopName":"HIGHLAND BLVD @ 6827 S","StreetNum":6827,"OnStreet":"S HIGHLAND BLVD","AtStreet":"LA CRESSA","City":"COTTONWOOD HEIGHTS","InService":1,"Bench":1,"Shelter":1,"Lighting":1,"Garbage":1,"Bicycle":0,"Transfer":0,"LocationUs":"Bus Stop","UTAStopID":"101441"}},
{"type":"Feature","geometry":{"type":"Point","coordinates":[-111.96991399369315,40.72581804505567]},"properties":{"StopId":21881,"StopName":"2100 S @ 3330 W","StreetNum":3330,"OnStreet":"W 2100 S","AtStreet":"REDWOOD RD","City":"WEST VALLEY","InService":1,"Bench":1,"Shelter":1,"Lighting":1,"Garbage":1,"Bicycle":0,"Transfer":0,"LocationUs":"Bus Stop","UTAStopID":"101442"}},
{"type":"Feature","geometry":{"type":"Point","coordinates":[-111.89077298135683,40.5805780082113]},"properties":{"StopId":21888,"StopName":"STATE ST @ 9345 S","StreetNum":9345,"OnStreet":"S STATE ST","AtStreet":"","City":"SANDY","InService":1,"Bench":1,"Shelter":1,"Lighting":1,"Garbage":1,"Bicycle":0,"Transfer":0,"LocationUs":"Bus Stop","UTAStopID":"101444"}},
{"type":"Feature","geometry":{"type":"Point","coordinates":[-111.89100397356218,40.576160958147575]},"properties":{"StopId":21889,"StopName":"STATE ST @ 9646 S","StreetNum":9646,"OnStreet":"S STATE ST","AtStreet":"","City":"SANDY","InService":1,"Bench":1,"Shelter":1,"Lighting":1,"Garbage":1,"Bicycle":0,"Transfer":0,"LocationUs":"Bus Stop","UTAStopID":"101445"}},
{"type":"Feature","geometry":{"type":"Point","coordinates":[-111.8910550081673,40.5798470269775]},"properties":{"StopId":21890,"StopName":"STATE ST @ 9438 S","StreetNum":9438,"OnStreet":"S STATE ST","AtStreet":"","City":"SANDY","InService":1,"Bench":1,"Shelter":1,"Lighting":1,"Garbage":1,"Bicycle":0,"Transfer":0,"LocationUs":"Bus Stop","UTAStopID":"101446"}},
{"type":"Feature","geometry":{"type":"Point","coordinates":[-111.8910209763476,40.58713903905111]},