{"type": "FeatureCollection", "features": [{"type": "Feature", "geometry": {"type": "Point", "coordinates": [-111.79688594572603, 40.687315016958394]}, "properties": {"stop_id": "7", "stop_name": "WASATCH BLVD @ 3900 S", "num_stations": 1}}, {"type": "Feature", "geometry": {"type": "Point", "coordinates": [-112.02460394426843, 40.67938303936382]}, "properties": {"stop_id": "11", "stop_name": "5600 W @ 4211 S", "num_stations": 1}}, {"type": "Feature", "geometry": {"type": "Point", "coordinates": [-112.00467295016648, 40.58171701734873]}, "properties": {"stop_id": "15", "stop_name": "OLD BINGHAM HWY @ 4786 W", "num_stations": 1}}, {"type": "Feature", "geometry": {"type": "Point", "coordinates": [-111.90902247630167, 40.76310389555446]}, "properties": {"stop_id": "18", "stop_name": "300 S @ 600 W", "num_stations": 1}}, {"type": "Feature", "geometry": {"type": "Point", "coordinates": [-111.83759400423371, 40.77253497578159]}, "properties": {"stop_id": "21", "stop_name": "NORTH MEDICAL DR @ 50 N", "num_stations": 1}}, {"type": "Feature", "geometry": {"type": "Point", "coordinates": [-111.88526004682494, 40.57023295699154]}, "properties": {"stop_id": "23", "stop_name": "Sandy Civic - Temp Bus Loop", "num_stations": 1}}, {"type": "Feature", "geometry": {"type": "Point", "coordinates": [-111.844860963055, 40.76434799537569]}, "properties": {"stop_id": "27", "stop_name": "CENTRAL CAMPUS DRIVE @ 260 S", "num_stations": 1}}, {"type": "Feature", "geometry": {"type": "Point", "coordinates": [-111.89706397951319, 40.72433698599691]}, "properties": {"stop_id": "28", "stop_name": "2100 S @ 221 W", "num_stations": 1}}, {"type": "Feature", "geometry": {"type": "Point", "coordinates": [-111.8981829566976, 40.63378401532377]}, "properties": {"stop_id": "37", "stop_name": "WINCHESTER DR @ 222 W", "num_stations": 1}}, {"type": "Feature", "geometry": {"type": "Point", "coordinates": [-111.89810796827511, 40.61846096806313]}, "properties": {"stop_id": "38", "stop_name": "180 W @ 7250 S", "num_stations": 1}}, {"type": "Feature", "geometry": {"type": "Point", "coordinates": [-111.97867603750714, 41.2360560072661]}, "properties": {"stop_id": "46", "stop_name": "WALL AVE @ 1725 S", "num_stations": 1}}, {"type": "Feature", "geometry": {"type": "Point", "coordinates": [-111.66121303513161, 40.225327980534026]}, "properties": {"stop_id": "67", "stop_name": "FREEDOM BLVD @ 610 S", "num_stations": 1}}, {"type": "Feature", "geometry": {"type": "Point", "coordinates": [-111.8961179729662, 40.42570799518682]}, "properties": {"stop_id": "70", "stop_name": "ASHTON BLVD @ 3101 N", "num_stations": 1}}, {"type": "Feature", "geometry": {"type": "Point", "coordinates": [-111.72638402083533, 40.280793009860595]}, "properties": {"stop_id": "71", "stop_name": "900 S @ 1350 W", "num_stations": 1}}, {"type": "Feature", "geometry": {"type": "Point", "coordinates": [-111.67695803917982, 40.27621999578764]}, "properties": {"stop_id": "76", "stop_name": "750 E @ 1145 S", "num_stations": 1}}, {"type": "Feature", "geometry": {"type": "Point", "coordinates": [-111.88807901720044, 40.761412039098694]}, "properties": {"stop_id": "85", "stop_name": "STATE ST @ 355 S", "num_stations": 1}}, {"type": "Feature", "geometry": {"type": "Point", "coordinates": [-111.96849896147135, 41.16298100167742]}, "properties": {"stop_id": "90", "stop_name": "ADAMS AVE @ 5558 S", "num_stations": 1}}, {"type": "Feature", "geometry": {"type": "Point", "coordinates": [-111.9474939514431, 41.19489701099712]}, "properties": {"stop_id": "95", "stop_name": "EDVALSON ST @ 1234 E", "num_stations": 1}}, {"type": "Feature", "geometry": {"type": "Point", "coordinates": [-111.97457104222676, 41.0789210277753]}, "properties": {"stop_id": "96", "stop_name": "RING RD @ 425 W    (LAYTON MALL)", "num_stations": 1}}, {"type": "Feature", "geometry": {"type": "Point", "coordinates": [-112.0645909481083, 41.16294097382621]}, "properties": {"stop_id": "99", "stop_name": "3500 W @ 5515 S    (ROY)", "num_stations": 1}}, {"type": "Feature", "geometry": {"type": "Point", "coordinates": [-111.90498303291776, 40.7740090040252]}, "properties": {"stop_id": "133", "stop_name": "490 W @ 210 N", "num_stations": 1}}]}